millis,ax,ay,az,gx,gy,gz,mx,my,mz,temp,alt,pitch,yaw,roll
14104,-0.00,0.00,1.00,-0.06,-0.12,0.12,85.03,317.51,280.13,25.02,1553.20,83.38,-163.93,0.41
14128,-0.00,0.00,1.00,-0.06,-0.12,0.12,85.03,317.51,280.13,25.03,1551.29,82.93,-163.70,0.49
14152,0.00,0.00,1.00,-0.06,-0.12,0.12,85.03,317.51,280.13,25.00,1552.81,82.49,-163.50,0.56
14175,-0.00,0.00,1.00,-0.06,-0.12,-0.06,85.03,317.51,280.13,25.00,1551.30,82.04,-163.32,0.60
14199,0.00,-0.00,1.00,-0.12,-0.06,0.12,85.03,317.51,280.13,25.00,1553.42,81.59,-163.12,0.66
14224,0.00,-0.00,1.00,-0.18,-0.18,0.06,85.03,304.87,277.10,24.98,1550.00,81.11,-162.92,0.70
14248,-0.00,0.00,1.00,-0.12,-0.18,0.00,85.03,304.87,277.10,24.99,1553.31,80.66,-162.73,0.74
14272,0.00,0.00,1.00,-0.12,-0.12,0.00,85.03,304.87,277.10,25.00,1553.28,80.21,-162.54,0.79
14295,0.00,0.00,1.00,-0.18,-0.18,0.06,85.03,304.87,277.10,25.01,1553.66,79.76,-162.33,0.84
14319,0.00,0.00,1.00,-0.12,-0.12,0.00,85.03,304.87,277.10,25.00,1553.84,79.30,-162.13,0.88
14343,-0.00,0.00,1.00,-0.12,-0.12,0.06,86.60,293.81,278.62,25.00,1551.67,78.84,-161.93,0.92
14377,-0.00,0.00,1.00,-0.06,-0.12,0.18,86.60,293.81,278.62,25.02,1554.05,78.17,-161.60,1.00
14415,-0.00,0.00,1.00,-0.12,-0.06,0.12,86.60,293.81,278.62,25.01,1551.03,77.44,-161.26,1.08
14438,0.00,0.00,1.00,-0.18,-0.06,0.12,86.60,293.81,278.62,25.01,1551.61,76.98,-161.05,1.12
14462,0.00,0.00,1.00,-0.12,-0.06,0.06,86.60,309.61,275.59,25.01,1549.53,76.52,-160.83,1.16
14486,0.00,0.00,1.00,-0.06,-0.06,0.06,86.60,309.61,275.59,24.98,1551.62,76.06,-160.62,1.21
14511,0.00,0.00,1.00,-0.12,-0.06,0.06,86.60,309.61,275.59,25.00,1552.08,75.56,-160.39,1.26
14535,-0.00,0.00,1.00,-0.18,-0.06,0.00,86.60,309.61,275.59,24.98,1548.63,75.10,-160.17,1.29
14558,0.00,0.00,1.00,-0.18,-0.18,0.12,86.60,309.61,275.59,25.03,1551.34,74.63,-159.95,1.34
14582,-0.00,-0.00,1.00,-0.12,-0.12,0.24,85.03,295.39,289.22,25.00,1552.43,74.15,-159.71,1.39
14606,0.00,0.00,1.00,-0.06,-0.06,0.00,85.03,295.39,289.22,25.02,1551.36,73.68,-159.49,1.42
14629,0.00,-0.00,1.00,-0.12,-0.12,0.06,85.03,295.39,289.22,25.00,1549.47,73.21,-159.27,1.46
14655,0.00,0.00,1.00,-0.18,-0.24,0.24,85.03,295.39,289.22,25.01,1549.62,72.69,-159.01,1.51
14678,0.00,0.00,1.00,-0.06,-0.18,0.06,85.03,295.39,289.22,25.01,1552.21,72.21,-158.77,1.55
14702,0.00,0.00,1.00,-0.06,-0.12,0.06,88.18,314.35,271.05,25.01,1547.87,71.73,-158.54,1.59
14726,-0.00,0.00,1.00,-0.06,-0.06,0.12,88.18,314.35,271.05,25.02,1550.96,71.25,-158.30,1.63
14750,0.00,0.00,1.00,-0.12,0.00,0.12,88.18,314.35,271.05,25.00,1551.69,70.78,-158.07,1.67
14775,-0.00,0.00,1.00,0.00,0.00,0.24,88.18,314.35,271.05,25.02,1550.44,70.26,-157.80,1.72
14798,-0.00,0.00,1.00,-0.18,0.00,0.12,88.18,314.35,271.05,25.00,1552.86,69.79,-157.56,1.76
14822,0.00,-0.00,1.00,-0.12,-0.12,0.06,88.18,314.35,271.05,25.01,1553.69,69.30,-157.33,1.78
14846,-0.00,-0.00,1.00,-0.12,-0.06,0.12,75.58,301.71,283.16,25.01,1551.95,68.81,-157.08,1.82
14870,0.00,0.00,1.00,-0.18,-0.06,0.12,75.58,301.71,283.16,25.01,1549.11,68.32,-156.84,1.86
14893,0.00,0.00,1.00,-0.12,-0.12,0.00,75.58,301.71,283.16,25.00,1550.64,67.82,-156.60,1.90
14919,-0.00,-0.00,1.00,-0.06,-0.06,0.06,75.58,301.71,283.16,25.02,1551.09,67.30,-156.34,1.93
14942,-0.00,0.00,1.00,-0.18,-0.12,0.06,75.58,301.71,283.16,25.01,1552.01,66.80,-156.09,1.96
14966,0.00,0.00,1.00,-0.06,-0.18,0.00,85.03,308.03,283.16,25.04,1549.51,66.29,-155.85,1.99
14990,0.00,-0.00,1.00,-0.06,-0.06,0.06,85.03,308.03,283.16,25.01,1550.51,65.79,-155.61,2.01
15013,0.00,0.00,1.00,-0.12,-0.12,0.00,85.03,308.03,283.16,25.00,1549.99,65.28,-155.36,2.03
15039,0.00,0.00,1.00,-0.06,-0.12,0.06,85.03,308.03,283.16,25.02,1551.08,64.74,-155.09,2.05
15062,0.00,0.00,1.00,-0.12,-0.12,0.06,85.03,308.03,283.16,25.03,1550.41,64.23,-154.84,2.07
15086,0.00,0.00,1.00,-0.24,-0.12,0.00,74.01,315.93,275.59,25.02,1549.44,63.72,-154.58,2.10
15110,0.00,0.00,1.00,-0.06,-0.12,0.18,74.01,315.93,275.59,25.02,1549.77,63.22,-154.32,2.14
15134,-0.00,0.00,1.00,-0.06,-0.12,0.12,74.01,315.93,275.59,25.02,1550.65,62.71,-154.05,2.17
15157,0.00,0.00,1.00,-0.12,-0.18,0.12,74.01,315.93,275.59,25.01,1549.25,62.20,-153.79,2.20
15187,0.00,0.00,1.00,-0.18,-0.12,0.06,74.01,315.93,275.59,25.01,1550.31,61.55,-153.46,2.23
15211,0.00,0.00,1.00,-0.06,-0.12,0.18,89.75,315.93,284.68,25.02,1550.31,61.03,-153.19,2.25
15235,-0.00,0.00,1.00,-0.12,-0.06,0.12,89.75,315.93,284.68,25.03,1549.71,60.50,-152.92,2.26
15258,-0.00,0.00,1.00,-0.06,-0.18,0.12,89.75,315.93,284.68,25.03,1551.11,59.97,-152.65,2.27
15282,-0.00,0.00,1.00,-0.24,-0.12,0.00,89.75,315.93,284.68,25.01,1552.51,59.44,-152.38,2.28
15314,0.00,0.00,1.00,-0.06,-0.12,0.06,89.75,315.93,284.68,25.03,1551.63,58.70,-152.01,2.28
15338,0.00,0.00,1.00,-0.12,-0.12,0.06,86.60,315.93,263.48,25.03,1550.69,58.17,-151.73,2.30
15362,-0.00,0.00,1.00,-0.18,-0.06,0.12,86.60,315.93,263.48,25.02,1550.40,57.65,-151.44,2.31
15386,-0.00,0.00,1.00,-0.12,-0.12,0.12,86.60,315.93,263.48,25.03,1550.98,57.12,-151.15,2.32
15409,0.00,0.00,1.00,-0.12,-0.12,0.12,86.60,315.93,263.48,25.03,1551.84,56.59,-150.87,2.33
15433,0.00,0.00,1.00,-0.06,-0.18,0.06,86.60,315.93,263.48,25.00,1550.46,56.05,-150.58,2.33
15459,0.00,0.00,1.00,-0.12,-0.12,0.06,92.90,306.45,269.53,25.02,1551.22,55.46,-150.27,2.33
15482,0.00,0.00,1.00,-0.06,-0.06,0.06,92.90,306.45,269.53,25.03,1551.28,54.91,-149.98,2.32
15506,0.00,-0.00,1.00,-0.18,-0.06,0.12,92.90,306.45,269.53,25.02,1550.09,54.35,-149.69,2.32
15530,0.00,0.00,1.00,-0.12,-0.06,0.06,92.90,306.45,269.53,25.03,1550.97,53.80,-149.40,2.31
15553,-0.00,0.00,1.00,-0.12,0.00,0.00,92.90,306.45,269.53,25.00,1551.03,53.24,-149.11,2.29
15577,0.00,0.00,1.00,-0.06,-0.18,0.06,91.33,308.03,271.05,25.03,1552.26,52.67,-148.81,2.28
15603,-0.00,0.00,1.00,-0.18,-0.18,0.12,91.33,308.03,271.05,25.05,1552.47,52.06,-148.49,2.27
15626,-0.00,0.00,1.00,-0.12,-0.18,-0.06,91.33,308.03,271.05,25.03,1550.51,51.49,-148.19,2.25
15650,0.00,0.00,1.00,-0.18,-0.06,0.12,91.33,308.03,271.05,25.04,1551.73,50.92,-147.89,2.24
15674,-0.00,0.00,1.00,-0.06,-0.12,0.06,91.33,308.03,271.05,25.03,1551.60,50.35,-147.59,2.22
15697,0.00,0.00,1.00,-0.06,-0.06,0.12,88.18,311.19,271.05,25.03,1551.98,49.77,-147.28,2.21
15723,0.00,0.00,1.00,-0.18,-0.06,0.06,88.18,311.19,271.05,25.02,1551.54,49.15,-146.95,2.18
15746,0.00,0.00,1.00,-0.06,-0.18,0.12,88.18,311.19,271.05,25.06,1552.67,48.57,-146.64,2.17
15770,-0.00,0.00,1.00,-0.12,-0.18,0.18,88.18,311.19,271.05,25.03,1552.25,47.98,-146.32,2.15
15794,0.00,-0.00,1.00,-0.18,-0.06,0.06,88.18,311.19,271.05,25.03,1550.21,47.40,-146.01,2.12
15835,0.00,-0.00,1.00,-0.06,-0.12,0.12,97.63,301.71,280.13,25.04,1550.43,46.31,-145.46,2.06
15859,0.00,0.00,1.00,-0.18,-0.12,0.12,97.63,301.71,280.13,25.02,1554.02,45.69,-145.14,2.02
15885,0.00,-0.00,1.00,-0.12,-0.06,0.12,97.63,301.71,280.13,25.04,1550.85,45.02,-144.79,1.98
15908,-0.00,-0.00,1.00,-0.18,-0.12,-0.06,97.63,301.71,280.13,25.04,1551.58,44.40,-144.47,1.93
15932,-0.00,0.00,1.00,-0.12,-0.18,0.12,97.63,301.71,280.13,25.02,1551.60,43.77,-144.15,1.89
15956,-0.00,0.00,1.00,-0.18,-0.06,0.06,83.45,300.13,278.62,25.06,1548.43,43.14,-143.82,1.85
15979,-0.00,0.00,1.00,-0.06,-0.12,0.06,83.45,300.13,278.62,25.06,1549.29,42.50,-143.50,1.81
16005,-0.00,-0.00,1.00,-0.06,-0.06,0.06,83.45,300.13,278.62,25.04,1552.42,41.82,-143.16,1.76
16028,0.00,0.00,1.00,-0.06,-0.12,0.06,83.45,300.13,278.62,25.05,1550.23,41.18,-142.84,1.71
16052,0.00,-0.00,1.00,-0.12,-0.12,0.18,83.45,300.13,278.62,25.06,1550.84,40.54,-142.50,1.67
16076,0.00,-0.00,1.00,-0.12,-0.06,0.12,83.45,303.29,278.62,25.06,1549.98,39.88,-142.17,1.61
16100,0.00,0.00,1.00,-0.18,-0.18,0.12,83.45,303.29,278.62,25.03,1552.39,39.23,-141.83,1.56
16123,0.00,0.00,1.00,-0.12,-0.12,0.12,83.45,303.29,278.62,25.03,1549.59,38.58,-141.50,1.51
16149,0.00,-0.00,1.00,-0.06,-0.12,0.12,83.45,303.29,278.62,25.04,1551.26,37.87,-141.13,1.45
16172,0.00,0.00,1.00,-0.12,-0.06,0.12,83.45,303.29,278.62,25.03,1550.65,37.21,-140.79,1.39
16196,0.00,-0.00,1.00,-0.06,-0.06,0.12,80.30,319.09,269.53,25.02,1548.70,36.56,-140.43,1.35
16220,-0.00,0.00,1.00,-0.12,-0.18,-0.06,80.30,319.09,269.53,25.07,1550.07,35.92,-140.07,1.29
16244,-0.00,-0.00,1.00,-0.12,-0.12,0.18,80.30,319.09,269.53,25.03,1551.47,35.27,-139.71,1.24
16273,-0.00,0.00,1.00,-0.06,-0.12,0.12,80.30,319.09,269.53,25.04,1553.30,34.45,-139.25,1.17
16297,-0.00,0.00,1.00,-0.12,-0.12,0.24,80.30,319.09,269.53,25.03,1551.53,33.79,-138.88,1.12
16321,0.00,0.00,1.00,-0.06,-0.06,0.18,80.30,312.77,278.62,25.05,1551.68,33.11,-138.51,1.05
16345,0.00,-0.00,1.00,-0.18,-0.06,0.12,80.30,312.77,278.62,25.08,1550.49,32.42,-138.14,0.98
16368,0.00,0.00,1.00,-0.12,-0.06,0.06,80.30,312.77,278.62,25.07,1551.31,31.74,-137.77,0.91
16392,0.00,0.00,1.00,-0.12,-0.12,0.06,80.30,312.77,278.62,25.03,1551.59,31.04,-137.40,0.83
16417,-0.00,0.00,1.00,-0.12,-0.12,0.18,80.30,312.77,278.62,25.05,1548.81,30.30,-136.99,0.75
16441,-0.00,0.00,1.00,-0.06,-0.18,0.00,78.73,314.35,261.96,25.07,1550.76,29.61,-136.60,0.68
16465,-0.00,-0.00,1.00,-0.12,-0.12,0.00,78.73,314.35,261.96,25.05,1549.03,28.93,-136.21,0.60
16488,0.00,0.00,1.00,-0.12,-0.06,-0.06,78.73,314.35,261.96,25.07,1549.14,28.25,-135.82,0.53
16512,0.00,0.00,1.00,-0.06,-0.06,0.06,78.73,314.35,261.96,25.05,1552.99,27.56,-135.41,0.45
16537,0.00,0.00,1.00,-0.12,-0.18,0.00,78.73,314.35,261.96,25.06,1551.10,26.82,-134.98,0.36
16561,0.00,0.00,1.00,-0.12,-0.12,0.12,88.18,295.39,268.02,25.06,1553.56,26.08,-134.57,0.27
16585,-0.00,0.00,1.00,-0.24,-0.06,0.06,88.18,295.39,268.02,25.09,1549.29,25.34,-134.15,0.17
16608,0.00,-0.00,1.00,-0.06,-0.12,0.00,88.18,295.39,268.02,25.07,1552.52,24.59,-133.73,0.08
16632,0.00,0.00,1.00,-0.12,-0.06,0.12,88.18,295.39,268.02,25.05,1550.58,23.85,-133.31,-0.02
16655,-0.00,0.00,1.00,-0.06,-0.18,0.12,88.18,295.39,268.02,25.08,1550.54,23.09,-132.87,-0.12
16681,-0.00,0.00,1.00,-0.06,-0.06,0.12,78.73,308.03,274.08,25.09,1551.64,22.28,-132.41,-0.23
16705,0.00,0.00,1.00,-0.06,-0.12,-0.06,78.73,308.03,274.08,25.08,1550.48,21.53,-131.99,-0.34
16728,0.00,-0.00,1.00,-0.12,-0.12,0.00,78.73,308.03,274.08,25.06,1550.60,20.77,-131.55,-0.46
16752,0.00,-0.00,1.00,-0.06,-0.12,0.06,78.73,308.03,274.08,25.09,1552.59,20.01,-131.11,-0.57
16775,-0.00,0.00,1.00,-0.06,-0.06,0.12,78.73,308.03,274.08,25.06,1548.44,19.24,-130.66,-0.69
16801,-0.00,0.00,1.00,-0.06,-0.12,0.12,89.75,309.61,278.62,25.06,1548.50,18.40,-130.16,-0.81
16825,-0.00,0.00,1.00,-0.06,-0.12,0.06,89.75,309.61,278.62,25.06,1553.13,17.62,-129.69,-0.93
16848,0.00,0.00,1.00,-0.12,-0.18,0.06,89.75,309.61,278.62,25.06,1553.01,16.83,-129.21,-1.05
16872,0.00,-0.00,1.00,-0.12,-0.18,0.12,89.75,309.61,278.62,25.09,1548.88,16.03,-128.72,-1.18
16895,0.00,0.00,1.00,-0.18,-0.12,0.06,89.75,309.61,278.62,25.07,1549.03,15.23,-128.23,-1.31
16919,-0.00,0.00,1.00,-0.06,-0.12,0.12,89.75,309.61,278.62,25.08,1550.51,14.42,-127.73,-1.44
16945,-0.00,0.00,1.00,-0.12,-0.12,0.12,102.35,315.93,272.56,25.06,1550.26,13.57,-127.15,-1.57
16968,-0.00,0.00,1.00,-0.12,-0.06,0.18,102.35,315.93,272.56,25.08,1549.38,12.78,-126.61,-1.69
16992,0.00,0.00,1.00,-0.12,-0.12,0.06,102.35,315.93,272.56,25.06,1551.91,11.99,-126.06,-1.82
17015,0.00,0.00,1.00,-0.18,-0.06,0.06,102.35,315.93,272.56,25.07,1548.98,11.19,-125.50,-1.95
17039,0.00,0.00,1.00,-0.12,-0.06,0.00,102.35,315.93,272.56,25.06,1550.32,10.39,-124.94,-2.08
17065,-0.00,-0.00,1.00,-0.12,-0.12,0.12,81.88,304.87,274.08,25.08,1547.91,9.50,-124.35,-2.25
17088,-0.00,0.00,0.99,-0.24,-0.12,0.12,81.88,304.87,274.08,25.06,1554.10,8.68,-123.79,-2.41
17112,0.00,-0.00,1.00,-0.18,-0.12,0.06,81.88,304.87,274.08,25.05,1549.10,7.85,-123.22,-2.57
17135,-0.00,-0.00,1.00,-0.12,-0.12,0.12,81.88,304.87,274.08,25.06,1549.92,7.02,-122.64,-2.74
17159,0.00,0.00,1.00,0.00,-0.12,0.12,81.88,304.87,274.08,25.08,1550.62,6.19,-122.05,-2.90
17183,0.00,-0.00,1.00,-0.06,-0.06,0.06,92.90,309.61,278.62,25.08,1550.28,5.35,-121.44,-3.06
17216,-0.00,0.00,1.00,-0.12,-0.12,0.12,92.90,309.61,278.62,25.07,1549.92,4.19,-120.55,-3.29
17247,0.00,-0.00,1.00,-0.12,-0.06,0.06,92.90,309.61,278.62,25.07,1549.53,3.11,-119.72,-3.50
17270,0.00,-0.00,1.00,-0.18,-0.12,0.06,92.90,309.61,278.62,25.07,1550.68,2.29,-119.06,-3.67
17294,0.00,0.00,1.00,-0.12,-0.06,0.00,83.45,309.61,269.53,25.06,1551.57,1.47,-118.39,-3.84
17318,0.00,-0.00,1.00,-0.18,-0.06,0.00,83.45,309.61,269.53,25.09,1550.47,0.68,-117.71,-4.02
17347,-0.00,0.00,1.00,-0.06,-0.12,0.12,83.45,309.61,269.53,25.05,1550.01,-0.31,-116.83,-4.23
17371,-0.00,0.00,1.00,-0.12,-0.18,0.06,83.45,309.61,269.53,25.07,1547.97,-1.10,-116.11,-4.40
17395,0.00,0.00,1.00,-0.12,-0.12,0.06,83.45,309.61,269.53,25.09,1552.45,-1.87,-115.38,-4.57
17418,0.00,0.00,1.00,-0.12,-0.12,0.06,89.75,300.13,275.59,25.09,1549.89,-2.67,-114.63,-4.74
17442,0.00,0.00,1.00,-0.06,-0.18,0.12,89.75,300.13,275.59,25.08,1550.35,-3.45,-113.86,-4.90
17466,0.00,0.00,1.00,-0.12,0.00,0.18,89.75,300.13,275.59,25.10,1550.10,-4.22,-113.07,-5.06
17491,0.00,0.00,1.00,-0.18,-0.12,0.06,89.75,300.13,275.59,25.08,1551.75,-5.01,-112.22,-5.23
17514,-0.00,0.00,1.00,-0.18,0.06,0.00,89.75,300.13,275.59,25.08,1549.67,-5.72,-111.40,-5.39
17538,-0.00,-0.00,1.00,-0.18,-0.12,0.12,89.75,300.13,275.59,25.08,1552.29,-6.42,-110.56,-5.55
17562,0.00,-0.00,1.00,0.00,-0.12,0.12,85.03,311.19,274.08,25.08,1549.73,-7.08,-109.70,-5.72
17585,-0.00,0.00,1.00,-0.24,-0.18,0.12,85.03,311.19,274.08,25.08,1549.64,-7.71,-108.84,-5.88
17611,0.00,0.00,1.00,-0.06,-0.12,0.12,85.03,311.19,274.08,25.09,1548.94,-8.35,-107.89,-6.05
17634,0.00,0.00,1.00,-0.06,-0.06,0.12,85.03,311.19,274.08,25.10,1550.95,-8.92,-107.00,-6.19
17658,-0.00,-0.00,1.00,-0.12,-0.06,0.00,85.03,311.19,274.08,25.09,1550.12,-9.45,-106.09,-6.34
17682,0.00,0.00,1.00,-0.18,-0.18,0.12,91.33,298.55,286.19,25.11,1548.56,-9.97,-105.14,-6.44
17705,0.00,0.00,1.00,-0.06,-0.06,0.12,91.33,298.55,286.19,25.09,1549.02,-10.45,-104.19,-6.52
17730,0.00,0.00,1.00,-0.06,-0.06,0.12,91.33,298.55,286.19,25.10,1550.21,-10.92,-103.16,-6.61
17754,-0.00,0.00,1.00,-0.12,-0.12,0.12,91.33,298.55,286.19,25.06,1550.64,-11.29,-102.19,-6.67
17778,-0.00,0.00,1.00,-0.18,-0.06,0.06,91.33,298.55,286.19,25.09,1551.10,-11.61,-101.21,-6.74
17802,0.00,-0.00,1.00,-0.18,-0.12,0.12,80.30,315.93,266.50,25.09,1551.28,-11.92,-100.21,-6.89
17825,0.00,0.00,1.00,-0.12,-0.06,0.18,80.30,315.93,266.50,25.08,1549.87,-12.18,-99.22,-7.01
17849,0.00,-0.00,1.00,-0.18,-0.18,0.06,80.30,315.93,266.50,25.09,1549.88,-12.41,-98.22,-7.13
17874,-0.00,0.00,1.00,-0.06,-0.06,0.06,80.30,315.93,266.50,25.07,1550.82,-12.60,-97.14,-7.24
17898,0.00,0.00,1.00,0.00,-0.12,0.18,80.30,315.93,266.50,25.08,1552.86,-12.75,-96.12,-7.33
17921,0.00,-0.00,1.00,-0.06,-0.12,0.06,81.88,311.19,261.96,25.09,1548.84,-12.88,-95.09,-7.42
17945,0.00,0.00,1.00,0.00,-0.12,0.06,81.88,311.19,261.96,25.09,1550.09,-12.97,-94.06,-7.48
17969,0.00,0.00,1.00,-0.12,-0.12,0.00,81.88,311.19,261.96,25.09,1551.36,-13.04,-93.03,-7.54
17994,0.00,-0.00,0.99,0.00,-0.12,0.12,81.88,311.19,261.96,25.10,1549.44,-13.06,-91.92,-7.61
18018,0.00,0.00,1.00,-0.12,-0.12,0.18,81.88,311.19,261.96,25.10,1551.00,-13.06,-90.87,-7.67
18041,0.00,0.00,1.00,-0.12,-0.12,0.12,85.03,304.87,274.08,25.10,1549.41,-13.01,-89.82,-7.66
18065,0.00,0.00,1.00,-0.12,-0.12,0.06,85.03,304.87,274.08,25.10,1552.83,-12.93,-88.77,-7.66
18089,0.00,0.00,1.00,-0.18,-0.06,0.00,85.03,304.87,274.08,25.11,1551.30,-12.83,-87.72,-7.66
18112,0.00,-0.00,1.00,-0.06,-0.12,0.12,85.03,304.87,274.08,25.09,1551.76,-12.72,-86.65,-7.68
18137,0.00,0.00,1.00,-0.06,-0.12,0.06,85.03,304.87,274.08,25.08,1549.56,-12.59,-85.50,-7.68
18161,0.00,0.00,1.00,-0.06,-0.06,0.06,75.58,314.35,280.13,25.08,1547.88,-12.46,-84.42,-7.72
18185,0.00,0.00,1.00,-0.06,-0.12,0.06,75.58,314.35,280.13,25.10,1548.83,-12.32,-83.33,-7.76
18208,0.00,0.00,1.00,-0.12,-0.24,0.06,75.58,314.35,280.13,25.10,1550.60,-12.17,-82.25,-7.79
18232,0.00,0.00,1.00,-0.12,-0.18,0.00,75.58,314.35,280.13,25.10,1549.68,-12.00,-81.15,-7.83
18257,0.00,0.00,1.00,-0.18,0.00,0.06,75.58,314.35,280.13,25.11,1552.24,-11.81,-79.97,-7.85
18281,0.00,0.00,1.00,-0.06,-0.12,0.12,89.75,315.93,269.53,25.08,1548.98,-11.61,-78.84,-7.82
18305,0.00,-0.00,1.00,-0.12,-0.06,0.12,89.75,315.93,269.53,25.12,1551.14,-11.40,-77.70,-7.81
18328,-0.00,0.00,1.00,-0.12,-0.12,0.06,89.75,315.93,269.53,25.13,1548.98,-11.16,-76.57,-7.78
18352,0.00,-0.00,1.00,-0.12,-0.12,0.00,89.75,315.93,269.53,25.12,1552.42,-10.94,-75.42,-7.76
18376,0.00,0.00,1.00,-0.12,-0.18,0.06,89.75,315.93,269.53,25.11,1550.16,-10.71,-74.26,-7.71
18405,0.00,-0.00,1.00,-0.12,-0.12,0.06,83.45,325.40,266.50,25.12,1550.81,-10.45,-72.79,-7.75
18429,0.00,0.00,1.00,-0.06,-0.12,0.00,83.45,325.40,266.50,25.14,1549.83,-10.23,-71.61,-7.74
18452,-0.00,0.00,1.00,-0.12,-0.12,0.18,83.45,325.40,266.50,25.09,1551.45,-9.99,-70.41,-7.74
18476,0.00,0.00,1.00,-0.12,-0.12,0.06,83.45,325.40,266.50,25.12,1550.60,-9.76,-69.21,-7.72
18499,-0.00,0.00,1.00,-0.12,-0.12,0.12,83.45,325.40,266.50,25.12,1550.77,-9.51,-68.00,-7.70
18525,0.00,0.00,1.00,-0.18,-0.12,0.12,83.45,325.40,266.50,25.10,1552.75,-9.25,-66.68,-7.67
18549,0.00,-0.00,1.00,-0.12,-0.12,0.00,88.18,301.71,277.10,25.12,1550.68,-8.89,-65.48,-7.52
18572,0.00,0.00,1.00,-0.06,-0.18,0.00,88.18,301.71,277.10,25.10,1551.17,-8.54,-64.27,-7.36
18596,-0.00,0.00,1.00,-0.18,-0.12,0.06,88.18,301.71,277.10,25.10,1550.34,-8.20,-63.05,-7.20
18641,0.00,-0.00,1.00,-0.12,-0.12,0.12,88.18,301.71,277.10,25.12,1550.99,-7.58,-60.65,-6.97
18665,0.00,0.00,1.00,-0.12,-0.12,0.18,88.18,301.71,277.10,25.12,1552.95,-7.25,-59.34,-6.84
18690,0.00,0.00,1.00,-0.12,-0.18,0.06,88.18,301.71,277.10,25.12,1552.64,-6.90,-57.95,-6.69
18714,-0.00,0.00,1.00,-0.06,-0.06,0.00,88.18,301.71,277.10,25.13,1552.24,-6.55,-56.66,-6.55
18737,0.00,0.00,1.00,-0.06,-0.12,0.00,88.18,301.71,277.10,25.10,1549.16,-6.27,-55.33,-6.41
18761,0.00,-0.00,1.00,-0.06,-0.12,0.06,88.18,301.71,277.10,25.09,1551.23,-5.95,-54.00,-6.28
18785,0.00,0.00,1.00,-0.12,-0.18,0.00,83.45,303.29,272.56,25.13,1549.00,-5.68,-52.63,-6.16
18810,0.00,0.00,1.00,-0.06,-0.06,0.18,83.45,303.29,272.56,25.13,1550.16,-5.39,-51.16,-6.05
18833,0.00,0.00,1.00,-0.06,-0.12,0.12,83.45,303.29,272.56,25.13,1551.11,-5.09,-49.78,-5.90
18857,-0.00,0.00,1.00,-0.12,-0.18,0.06,83.45,303.29,272.56,25.12,1552.42,-4.77,-48.40,-5.74
18881,-0.00,0.00,1.00,-0.12,-0.18,0.00,83.45,303.29,272.56,25.11,1552.15,-4.47,-47.00,-5.58
18904,0.00,-0.00,1.00,-0.12,-0.18,0.00,88.18,311.19,283.16,25.11,1550.65,-4.17,-45.58,-5.40
18928,0.00,0.00,1.00,-0.12,-0.06,0.06,88.18,311.19,283.16,25.12,1550.07,-3.86,-44.16,-5.15
18953,0.00,0.00,1.00,-0.12,-0.12,0.18,88.18,311.19,283.16,25.12,1550.73,-3.55,-42.62,-4.91
18977,-0.00,0.00,1.00,-0.18,-0.12,0.18,88.18,311.19,283.16,25.14,1551.07,-3.24,-41.17,-4.67
19001,0.00,0.00,1.00,-0.18,-0.12,0.12,88.18,311.19,283.16,25.12,1552.47,-2.98,-39.70,-4.43
19024,-0.00,0.00,1.00,-0.06,-0.12,0.12,92.90,309.61,272.56,25.10,1550.30,-2.65,-38.23,-4.12
19048,0.00,-0.00,1.00,-0.12,0.00,0.00,92.90,309.61,272.56,25.12,1550.95,-2.37,-36.73,-3.86
19072,0.00,-0.00,1.00,-0.06,-0.12,0.12,92.90,309.61,272.56,25.09,1548.66,-2.09,-35.23,-3.57
19097,-0.00,0.00,1.00,-0.12,-0.12,0.06,92.90,309.61,272.56,25.13,1552.68,-1.76,-33.62,-3.22
19120,-0.00,0.00,1.00,-0.06,-0.12,0.00,92.90,309.61,272.56,25.11,1552.16,-1.52,-32.09,-2.90
19144,0.00,0.00,1.00,-0.06,-0.12,0.06,102.35,312.77,281.65,25.12,1552.37,-1.20,-30.62,-2.31
19168,0.00,0.00,1.00,-0.12,-0.12,0.12,102.35,312.77,281.65,25.13,1549.32,-1.01,-29.05,-1.95
19191,0.00,0.00,1.00,-0.06,-0.18,0.12,102.35,312.77,281.65,25.13,1551.95,-0.75,-27.48,-1.58
19217,-0.00,0.00,1.00,-0.06,-0.12,0.18,102.35,312.77,281.65,25.13,1552.25,-0.50,-25.78,-1.24
19240,-0.00,0.00,1.00,-0.12,-0.06,0.06,102.35,312.77,281.65,25.12,1552.74,-0.33,-24.22,-0.84
19264,-0.00,0.00,1.00,-0.12,-0.06,0.12,102.35,312.77,281.65,25.13,1549.32,-0.10,-22.74,-0.30
19288,0.00,0.00,1.00,-0.12,-0.12,0.12,78.73,311.19,268.02,25.13,1551.22,-0.46,-21.34,-1.10
19311,0.00,0.00,1.00,-0.06,-0.18,0.06,78.73,311.19,268.02,25.13,1553.50,-0.25,-19.83,-0.52
19335,0.00,0.00,1.00,-0.06,-0.12,0.06,78.73,311.19,268.02,25.14,1549.02,-0.44,-18.23,-0.63
19360,0.00,0.00,1.00,-0.12,-0.06,0.06,78.73,311.19,268.02,25.10,1549.54,0.45,-17.37,0.48
19384,-0.00,-0.00,1.00,-0.18,0.00,0.06,78.73,311.19,268.02,25.11,1550.91,-0.08,-16.75,-0.90
19407,0.00,0.00,1.00,-0.12,0.00,0.06,75.58,301.71,277.10,25.10,1550.75,0.06,-16.90,0.69
19431,0.00,0.00,1.00,-0.06,0.00,0.18,75.58,301.71,277.10,25.12,1551.39,-0.18,-16.31,-0.77
19454,0.00,0.00,1.00,-0.12,-0.06,0.06,75.58,301.71,277.10,25.12,1550.87,0.03,-16.58,0.78
19484,0.00,0.00,1.00,-0.12,-0.06,0.00,75.58,301.71,277.10,25.12,1548.96,-0.43,-16.07,-1.10
19507,0.00,0.00,1.00,-0.18,-0.06,0.18,75.58,301.71,277.10,25.14,1549.96,0.06,-16.42,0.39
19531,-0.00,0.00,1.00,-0.12,-0.12,0.18,86.60,309.61,275.59,25.12,1552.31,0.26,-17.54,0.35
19555,0.00,0.00,1.00,-0.12,-0.06,0.12,86.60,309.61,275.59,25.12,1552.10,-0.70,-17.55,-0.52
19578,-0.00,0.00,1.00,-0.12,-0.18,0.06,86.60,309.61,275.59,25.12,1549.23,0.38,-17.89,0.57
19602,-0.00,-0.00,1.00,-0.12,-0.06,-0.12,86.60,309.61,275.59,25.14,1548.52,-0.36,-17.60,-0.75
19636,0.00,-0.00,1.00,-0.12,-0.18,0.18,86.60,309.61,275.59,25.14,1550.45,0.43,-18.18,1.24
19660,0.00,0.00,1.00,-0.06,-0.18,0.12,97.63,308.03,286.19,25.14,1551.89,-0.29,-18.38,-0.14
19683,0.00,-0.00,1.00,-0.06,-0.06,0.12,97.63,308.03,286.19,25.15,1551.54,0.29,-19.23,0.83
19707,0.00,-0.00,1.00,-0.06,-0.12,0.12,97.63,308.03,286.19,25.13,1550.66,-0.29,-19.16,-0.59
19730,0.00,0.00,1.00,-0.18,-0.18,0.12,97.63,308.03,286.19,25.14,1552.22,0.14,-19.65,0.79
19756,-0.00,0.00,1.00,-0.06,-0.12,0.00,97.63,308.03,286.19,25.13,1553.19,-0.00,-19.39,-0.79
19779,0.00,0.00,1.00,-0.06,-0.12,0.06,91.33,298.55,274.08,25.14,1550.66,-0.03,-19.63,0.72
19803,0.00,0.00,1.00,-0.24,-0.06,0.12,91.33,298.55,274.08,25.13,1550.90,-0.24,-19.19,-0.76
19827,0.00,0.00,1.00,-0.06,-0.06,0.12,91.33,298.55,274.08,25.14,1552.30,0.07,-19.53,0.70
19850,0.00,0.00,1.00,-0.06,-0.12,0.06,91.33,298.55,274.08,25.13,1552.92,-0.26,-19.06,-0.70
19874,0.00,0.00,1.00,-0.18,-0.12,0.00,91.33,298.55,274.08,25.15,1551.84,0.13,-19.43,0.72
19899,0.00,0.00,1.00,-0.12,-0.06,0.00,97.63,308.03,280.13,25.15,1550.44,-0.32,-19.31,-0.77
19923,0.00,0.00,1.00,-0.06,-0.06,0.12,97.63,308.03,280.13,25.15,1550.50,0.16,-19.77,0.61
19946,0.00,0.00,1.00,0.00,-0.18,0.06,97.63,308.03,280.13,25.13,1551.44,-0.52,-19.46,-0.56
19970,-0.00,0.00,1.00,-0.12,-0.12,0.00,97.63,308.03,280.13,25.13,1550.13,0.34,-19.84,0.64
19993,-0.00,0.00,1.00,-0.12,0.00,0.12,97.63,308.03,280.13,25.15,1551.90,-0.32,-19.51,-0.63
20017,0.00,-0.00,1.00,-0.18,-0.06,0.06,80.30,296.97,266.50,25.14,1554.03,0.18,-18.27,0.08
20058,0.00,0.00,1.00,-0.18,-0.06,0.18,80.30,296.97,266.50,25.12,1549.81,-1.20,-16.73,-1.23
20082,0.00,0.00,1.00,-0.06,-0.18,0.06,80.30,296.97,266.50,25.14,1550.17,-0.27,-17.16,0.06
20105,0.00,0.00,1.00,-0.12,-0.12,0.00,80.30,296.97,266.50,25.15,1553.61,0.77,-17.44,0.57
20129,-0.00,0.00,1.00,-0.06,-0.06,0.06,80.30,296.97,266.50,25.11,1551.17,-0.39,-17.12,-0.45
20152,0.00,-0.00,1.00,-0.12,-0.06,0.06,85.03,311.19,261.96,25.14,1549.86,0.32,-17.65,0.75
20178,0.00,-0.00,1.00,-0.06,-0.06,0.06,85.03,311.19,261.96,25.16,1550.78,-0.50,-17.31,-0.70
20201,0.00,-0.00,1.00,0.00,-0.12,0.06,85.03,311.19,261.96,25.16,1551.59,0.15,-17.72,0.65
20225,0.00,0.00,1.00,-0.18,-0.12,0.12,85.03,311.19,261.96,25.15,1550.59,-0.27,-17.28,-0.76
20248,-0.00,0.00,1.00,-0.12,-0.06,0.00,85.03,311.19,261.96,25.15,1550.99,0.23,-17.68,0.66
20272,0.00,0.00,1.00,-0.12,-0.12,0.12,102.35,300.13,275.59,25.18,1548.21,0.11,-19.03,0.75
20296,0.00,0.00,1.00,-0.12,-0.06,0.12,102.35,300.13,275.59,25.17,1551.99,-0.47,-19.88,0.03
20321,0.00,0.00,1.00,-0.06,-0.06,0.00,102.35,300.13,275.59,25.16,1551.07,0.47,-20.67,0.72
20344,0.00,0.00,1.00,-0.06,-0.18,0.00,102.35,300.13,275.59,25.15,1551.10,-0.34,-20.54,-0.51
20368,-0.00,0.00,1.00,-0.12,-0.06,0.00,102.35,300.13,275.59,25.14,1553.18,0.38,-20.98,0.69
20392,-0.00,-0.00,1.00,-0.06,-0.06,0.06,91.33,304.87,271.05,25.15,1550.03,-0.12,-20.23,-0.67
20415,-0.00,0.00,1.00,0.00,-0.18,0.06,91.33,304.87,271.05,25.14,1552.39,0.16,-19.73,0.64
20441,0.00,0.00,1.00,-0.12,-0.12,0.12,91.33,304.87,271.05,25.15,1550.43,-0.26,-19.10,-0.87
20464,0.00,0.00,1.00,-0.12,-0.18,0.06,91.33,304.87,271.05,25.16,1550.43,0.16,-19.36,0.59
20488,0.00,-0.00,1.00,-0.12,-0.06,0.06,91.33,304.87,271.05,25.14,1551.00,-0.39,-18.93,-0.80
20511,0.00,0.00,1.00,-0.06,-0.24,0.06,88.18,311.19,264.99,25.15,1551.50,0.20,-18.88,0.65
20535,-0.00,0.00,1.00,-0.06,-0.12,0.18,88.18,311.19,264.99,25.15,1552.31,-0.20,-18.21,-0.73
20559,0.00,-0.00,1.00,-0.06,-0.12,0.06,88.18,311.19,264.99,25.16,1549.91,0.10,-18.48,0.73
20588,0.00,-0.00,1.00,-0.06,-0.12,0.12,88.18,311.19,264.99,25.14,1552.16,-0.37,-17.94,-1.13
20612,0.00,0.00,1.00,-0.12,-0.12,0.24,88.18,311.19,264.99,25.18,1549.51,0.05,-18.29,0.37
20636,-0.00,0.00,1.00,-0.12,-0.12,0.12,77.16,315.93,278.62,25.17,1552.50,-0.13,-17.25,-0.90
20659,-0.00,0.00,1.00,0.00,-0.12,0.18,77.16,315.93,278.62,25.16,1551.95,0.07,-17.00,0.66
20683,0.00,0.00,1.00,-0.06,-0.06,0.00,77.16,315.93,278.62,25.15,1547.95,-0.30,-16.34,-0.76
20706,0.00,0.00,1.00,-0.06,-0.12,0.06,77.16,315.93,278.62,25.17,1549.33,0.07,-16.51,0.77
20732,0.00,-0.00,1.00,-0.12,-0.06,0.06,77.16,315.93,278.62,25.16,1550.58,-0.32,-16.00,-0.84
20755,0.00,-0.00,1.00,-0.06,-0.12,0.12,85.03,301.71,268.02,25.14,1551.00,0.14,-16.74,0.51
20779,-0.00,-0.00,1.00,-0.06,-0.12,0.12,85.03,301.71,268.02,25.18,1553.29,0.18,-17.48,-0.48
20803,0.00,0.00,1.00,-0.12,-0.12,0.06,85.03,301.71,268.02,25.18,1550.46,-0.12,-17.90,0.95
20826,0.00,0.00,1.00,-0.12,-0.12,0.06,85.03,301.71,268.02,25.16,1552.40,-0.15,-17.59,-0.58
20851,0.00,0.00,1.00,-0.06,-0.12,0.06,85.03,301.71,268.02,25.18,1550.39,-0.03,-18.09,0.95
20875,0.00,0.00,1.00,-0.06,-0.18,0.12,92.90,296.97,281.65,25.15,1550.75,0.11,-18.49,-0.45
20899,0.00,0.00,1.00,-0.12,-0.18,0.06,92.90,296.97,281.65,25.17,1552.61,0.10,-19.11,0.93
20922,-0.00,0.00,1.00,0.00,-0.06,0.00,92.90,296.97,281.65,25.16,1552.59,-0.02,-18.98,-0.60
20946,0.00,0.00,1.00,-0.12,-0.12,0.06,92.90,296.97,281.65,25.17,1549.59,0.13,-19.49,0.80
20969,0.00,-0.00,1.00,0.00,-0.06,0.06,92.90,296.97,281.65,25.15,1549.90,-0.29,-19.26,-0.69
20995,0.00,0.00,1.00,-0.06,-0.06,0.12,77.16,306.45,269.53,25.15,1549.19,-0.26,-17.62,-0.22
21018,0.00,-0.00,1.00,-0.12,-0.18,0.18,77.16,306.45,269.53,25.16,1550.01,0.51,-16.48,-0.29
21042,-0.00,0.00,1.00,-0.12,-0.06,0.06,77.16,306.45,269.53,25.17,1551.63,-0.56,-16.53,0.73
21066,-0.00,0.00,1.00,-0.06,-0.12,0.06,77.16,306.45,269.53,25.18,1551.18,0.36,-16.26,-0.55
21089,0.00,0.00,1.00,-0.12,-0.06,0.12,77.16,306.45,269.53,25.15,1547.94,-0.51,-16.54,0.71
21114,0.00,0.00,1.00,-0.12,-0.12,0.12,77.16,306.45,269.53,25.16,1550.32,0.19,-16.21,-0.80
21138,0.00,0.00,1.00,-0.12,-0.12,0.00,89.75,315.93,284.68,25.18,1549.56,0.11,-16.93,0.63
21162,0.00,0.00,1.00,-0.06,-0.18,0.06,89.75,315.93,284.68,25.17,1551.60,-0.24,-17.54,-0.37
21185,-0.00,0.00,1.00,-0.18,-0.06,0.12,89.75,315.93,284.68,25.17,1550.20,0.63,-17.99,0.80
21209,-0.00,0.00,1.00,-0.12,-0.06,0.12,89.75,315.93,284.68,25.16,1551.45,-0.25,-17.71,-0.49
21233,-0.00,-0.00,1.00,-0.12,-0.12,0.06,89.75,315.93,284.68,25.19,1549.53,0.48,-18.19,0.72
21258,-0.00,0.00,1.00,-0.12,-0.12,0.12,83.45,312.77,275.59,25.17,1550.87,-0.27,-17.51,-0.70
21282,-0.00,0.00,1.00,-0.18,-0.18,0.00,83.45,312.77,275.59,25.19,1553.52,0.27,-17.67,0.76
21305,0.00,0.00,1.00,-0.18,-0.12,0.06,83.45,312.77,275.59,25.19,1550.84,-0.28,-17.19,-0.67
21329,-0.00,0.00,1.00,-0.12,0.00,0.06,83.45,312.77,275.59,25.14,1551.18,0.33,-17.50,0.73
21352,0.00,0.00,1.00,-0.12,-0.12,0.12,83.45,312.77,275.59,25.17,1552.48,-0.44,-17.07,-0.60
21376,0.00,0.00,1.00,-0.06,-0.18,0.18,89.75,303.29,269.53,25.18,1552.03,0.15,-17.76,0.70
21399,-0.00,0.00,1.00,-0.12,-0.12,0.06,89.75,303.29,269.53,25.17,1550.87,0.03,-18.03,-0.63
21423,0.00,0.00,1.00,0.00,-0.06,0.12,89.75,303.29,269.53,25.17,1552.12,0.06,-18.54,0.82
21455,-0.00,-0.00,1.00,-0.12,0.00,-0.06,89.75,303.29,269.53,25.18,1549.89,0.14,-18.27,-1.27
21485,-0.00,0.00,0.99,-0.06,-0.06,0.00,89.75,303.29,269.53,25.18,1549.59,0.13,-18.77,0.75
21509,0.00,0.00,1.00,-0.06,-0.12,0.00,88.18,314.35,268.02,25.18,1550.99,-0.22,-18.12,-0.67
21534,0.00,0.00,1.00,-0.12,-0.06,0.06,88.18,314.35,268.02,25.18,1551.05,-0.00,-18.32,0.95
21558,-0.00,0.00,1.00,-0.18,-0.12,0.12,88.18,314.35,268.02,25.18,1551.41,-0.03,-17.87,-0.58
21581,0.00,0.00,1.00,-0.06,-0.12,0.12,88.18,314.35,268.02,25.18,1552.12,-0.03,-18.17,0.88
21605,-0.00,-0.00,1.00,-0.06,-0.12,0.12,88.18,314.35,268.02,25.17,1551.02,0.03,-17.82,-0.67
21629,0.00,0.00,1.00,-0.06,-0.18,0.06,83.45,296.97,269.53,25.19,1552.48,0.05,-18.16,0.84
21652,0.00,-0.00,1.00,-0.06,-0.12,0.06,83.45,296.97,269.53,25.16,1551.44,-0.32,-17.79,-0.67
21682,0.00,0.00,1.00,-0.06,-0.12,0.18,83.45,296.97,269.53,25.20,1553.18,0.35,-18.25,1.08
21705,0.00,0.00,1.00,-0.06,-0.06,0.12,83.45,296.97,269.53,25.18,1548.51,-0.18,-17.84,-0.39
21729,-0.00,-0.00,1.00,-0.18,0.00,0.06,83.45,296.97,269.53,25.18,1552.85,0.55,-18.20,0.75
21753,-0.00,0.00,1.00,-0.06,-0.12,0.06,88.18,292.23,268.02,25.18,1548.60,-0.47,-18.26,-0.35
21776,0.00,0.00,1.00,-0.12,-0.12,0.06,88.18,292.23,268.02,25.19,1550.95,0.27,-18.84,0.81
21802,0.00,0.00,1.00,-0.12,-0.06,0.00,88.18,292.23,268.02,25.18,1550.43,-0.32,-18.58,-0.72
21825,0.00,0.00,1.00,-0.18,-0.12,0.06,88.18,292.23,268.02,25.19,1550.89,0.16,-19.02,0.68
21849,0.00,0.00,1.00,-0.18,-0.24,0.06,88.18,292.23,268.02,25.16,1549.39,-0.33,-18.72,-0.74
21873,-0.00,0.00,1.00,-0.12,-0.12,-0.06,75.58,301.71,283.16,25.20,1550.73,0.49,-17.65,0.12
21896,-0.00,0.00,1.00,-0.12,-0.06,0.06,75.58,301.71,283.16,25.18,1551.83,-0.51,-16.77,-0.75
21920,-0.00,0.00,1.00,-0.12,-0.18,0.06,75.58,301.71,283.16,25.19,1549.27,0.34,-16.91,0.59
21945,0.00,0.00,1.00,-0.06,-0.12,0.00,75.58,301.71,283.16,25.20,1552.84,-0.43,-16.32,-0.82
21969,0.00,0.00,1.00,0.00,-0.12,0.00,75.58,301.71,283.16,25.19,1549.27,0.16,-16.63,0.63
21992,-0.00,-0.00,1.00,-0.12,-0.12,0.12,94.48,301.71,277.10,25.18,1552.32,0.36,-17.97,0.37
22016,-0.00,-0.00,1.00,-0.12,-0.06,0.06,94.48,301.71,277.10,25.20,1551.46,-0.10,-18.96,-0.05
22040,-0.00,-0.00,1.00,-0.12,-0.06,0.12,94.48,301.71,277.10,25.19,1549.94,0.51,-19.60,0.61
22065,0.00,0.00,1.00,-0.18,-0.12,0.00,94.48,301.71,277.10,25.21,1552.99,-0.54,-19.29,-0.60
22088,0.00,0.00,1.00,-0.18,-0.12,0.06,94.48,301.71,277.10,25.19,1551.23,0.20,-19.70,0.66
22112,0.00,-0.00,1.00,-0.12,-0.12,0.18,86.60,306.45,275.59,25.19,1549.82,-0.22,-18.96,-0.73
22136,-0.00,0.00,1.00,-0.18,-0.06,0.06,86.60,306.45,275.59,25.21,1548.44,0.27,-18.83,0.72
22159,-0.00,0.00,1.00,-0.06,-0.12,0.12,86.60,306.45,275.59,25.19,1552.78,-0.15,-18.24,-0.70
22183,-0.00,-0.00,1.00,-0.12,-0.12,0.06,86.60,306.45,275.59,25.19,1551.15,0.31,-18.46,0.73
22208,-0.00,0.00,1.00,-0.12,-0.06,0.18,86.60,306.45,275.59,25.21,1553.26,-0.23,-17.95,-0.80
22232,0.00,-0.00,1.00,-0.06,-0.12,0.12,69.28,311.19,268.02,25.20,1550.34,-0.09,-16.39,-0.33
22256,-0.00,0.00,1.00,-0.06,-0.24,-0.06,69.28,311.19,268.02,25.19,1551.95,0.30,-15.11,0.42
22279,0.00,0.00,1.00,-0.12,-0.24,0.18,69.28,311.19,268.02,25.21,1548.32,-0.62,-14.61,-0.76
22303,-0.00,-0.00,1.00,-0.06,-0.18,0.06,69.28,311.19,268.02,25.19,1550.70,0.31,-14.99,0.49
22327,-0.00,-0.00,1.00,-0.06,-0.12,0.06,69.28,311.19,268.02,25.20,1549.05,-0.30,-14.62,-0.94
22352,0.00,-0.00,1.00,-0.06,-0.12,0.12,69.28,311.19,268.02,25.20,1552.01,0.14,-15.04,0.67
22376,0.00,-0.00,1.00,-0.06,-0.12,0.00,111.80,296.97,272.56,25.21,1550.30,0.24,-16.45,1.36
22399,0.00,-0.00,1.00,-0.06,-0.12,0.12,111.80,296.97,272.56,25.18,1549.90,0.36,-17.93,1.24
22423,-0.00,-0.00,1.00,-0.18,-0.12,0.12,111.80,296.97,272.56,25.20,1548.55,0.29,-19.27,0.76
22446,0.00,-0.00,1.00,-0.12,-0.12,0.12,111.80,296.97,272.56,25.21,1548.34,0.10,-20.55,0.60
22472,0.00,0.00,1.00,-0.06,-0.18,0.12,111.80,296.97,272.56,25.21,1549.78,0.12,-21.68,0.40
22495,-0.00,0.00,1.00,-0.06,-0.12,0.06,83.45,315.93,272.56,25.19,1550.60,-0.20,-20.57,-0.78
22519,0.00,0.00,1.00,-0.18,-0.12,0.06,83.45,315.93,272.56,25.22,1552.77,-0.64,-19.04,-0.54
22543,-0.00,0.00,1.00,-0.06,-0.18,0.00,83.45,315.93,272.56,25.20,1552.52,0.56,-18.18,-0.03
22566,0.00,0.00,1.00,-0.06,-0.12,0.12,83.45,315.93,272.56,25.21,1549.81,-0.81,-17.48,-0.33
22590,0.00,0.00,1.00,-0.12,-0.18,0.06,83.45,315.93,272.56,25.23,1551.33,0.59,-17.50,0.34
22615,-0.00,0.00,1.00,-0.18,-0.12,0.12,94.48,304.87,271.05,25.19,1551.21,-0.39,-18.53,0.65
22639,0.00,-0.00,1.00,-0.06,-0.12,0.12,94.48,304.87,271.05,25.21,1549.51,0.14,-18.86,-0.61
22663,-0.00,0.00,1.00,-0.06,-0.12,0.12,94.48,304.87,271.05,25.20,1551.54,0.16,-19.33,0.81
22686,-0.00,-0.00,1.00,-0.12,-0.06,0.00,94.48,304.87,271.05,25.19,1553.71,-0.12,-19.09,-0.68
22710,0.00,0.00,1.00,-0.06,-0.06,0.12,94.48,304.87,271.05,25.19,1553.16,0.13,-19.47,0.78
22739,-0.00,0.00,1.00,-0.18,-0.12,0.06,96.05,303.29,269.53,25.22,1551.06,-0.13,-19.26,-1.00
22763,0.00,0.00,1.00,-0.06,-0.18,0.06,96.05,303.29,269.53,25.22,1551.21,0.08,-19.70,0.49
22786,0.00,0.00,1.00,-0.06,-0.06,0.06,96.05,303.29,269.53,25.21,1549.93,-0.40,-19.51,-0.75
22810,0.00,0.00,1.00,-0.06,-0.12,0.06,96.05,303.29,269.53,25.21,1552.98,0.09,-19.92,0.63
22833,-0.00,0.00,1.00,-0.24,-0.12,0.06,96.05,303.29,269.53,25.21,1549.16,-0.10,-19.54,-0.73
22878,0.00,0.00,1.00,-0.06,-0.18,0.06,86.60,312.77,269.53,25.23,1552.41,-0.11,-18.02,1.69
22903,0.00,0.00,1.00,-0.18,-0.06,0.12,86.60,312.77,269.53,25.21,1549.30,-0.18,-17.59,-0.02
22927,0.00,0.00,1.00,0.00,-0.12,-0.06,86.60,312.77,269.53,25.22,1551.37,0.57,-17.85,0.58
22951,0.00,0.00,1.00,0.00,-0.12,0.12,86.60,312.77,269.53,25.20,1550.57,-0.65,-17.51,-0.34
22974,-0.00,0.00,1.00,-0.06,-0.18,0.12,86.60,319.09,260.45,25.21,1550.20,0.61,-17.69,0.53
22998,-0.00,-0.00,1.00,-0.12,-0.12,0.12,86.60,319.09,260.45,25.22,1551.02,-0.35,-17.31,-0.65
23023,-0.00,0.00,1.00,0.00,-0.06,0.06,86.60,319.09,260.45,25.22,1551.06,0.36,-17.69,0.79
23047,-0.00,0.00,1.00,-0.18,-0.18,0.12,86.60,319.09,260.45,25.20,1549.04,-0.26,-17.25,-0.60
23070,0.00,0.00,1.00,-0.12,-0.12,0.12,86.60,319.09,260.45,25.20,1551.79,0.05,-17.62,0.85
23094,0.00,0.00,1.00,0.06,-0.18,0.12,85.03,308.03,264.99,25.24,1553.09,-0.24,-17.34,-0.69
23118,-0.00,-0.00,1.00,-0.06,-0.06,0.00,85.03,308.03,264.99,25.22,1552.02,0.42,-17.77,0.64
23141,0.00,0.00,1.00,-0.06,-0.06,0.06,85.03,308.03,264.99,25.21,1550.96,-0.41,-17.42,-0.63
23166,0.00,0.00,1.00,-0.06,-0.12,0.18,85.03,308.03,264.99,25.21,1550.87,0.29,-17.84,0.81
23190,-0.00,0.00,1.00,-0.12,-0.06,0.18,85.03,308.03,264.99,25.21,1549.13,-0.25,-17.42,-0.61
23213,0.00,0.00,1.00,-0.12,-0.06,0.06,85.03,308.03,264.99,25.23,1552.27,0.22,-17.81,0.80
23237,0.00,0.00,1.00,-0.12,-0.12,0.00,88.18,304.87,274.08,25.23,1551.93,-0.30,-17.75,-0.64
23261,0.00,0.00,1.00,-0.12,-0.12,0.12,88.18,304.87,274.08,25.21,1551.65,0.17,-18.23,0.75
23284,0.00,0.00,1.00,-0.18,-0.18,0.12,88.18,304.87,274.08,25.23,1554.03,-0.33,-17.97,-0.68
23310,0.00,0.00,0.99,-0.06,-0.18,0.12,88.18,304.87,274.08,25.23,1550.28,0.13,-18.42,0.85
23333,0.00,0.00,1.00,-0.12,-0.12,0.12,88.18,304.87,274.08,25.22,1551.01,-0.33,-18.06,-0.60
23357,-0.00,0.00,1.00,0.00,-0.06,0.12,78.73,311.19,268.02,25.24,1549.55,0.59,-17.39,0.49
23381,-0.00,0.00,1.00,-0.06,-0.12,0.06,78.73,311.19,268.02,25.21,1554.37,-0.37,-16.74,-0.62
23404,-0.00,0.00,1.00,0.00,-0.12,0.18,78.73,311.19,268.02,25.23,1549.82,0.37,-16.89,0.75
23429,0.00,0.00,1.00,-0.12,-0.06,0.00,78.73,311.19,268.02,25.25,1549.19,-0.39,-16.40,-0.71
23453,0.00,0.00,1.00,-0.06,-0.18,0.12,78.73,311.19,268.02,25.22,1554.09,0.15,-16.69,0.75
23477,0.00,0.00,1.00,-0.18,0.00,0.12,100.77,308.03,274.08,25.22,1549.88,0.14,-18.10,0.92
23500,0.00,0.00,1.00,-0.06,-0.12,0.18,100.77,308.03,274.08,25.24,1551.59,-0.06,-18.95,-0.12
23524,0.00,0.00,1.00,0.00,-0.18,0.06,100.77,308.03,274.08,25.19,1550.45,-0.01,-19.78,0.96
23547,0.00,0.00,1.00,-0.06,-0.12,0.06,100.77,308.03,274.08,25.23,1550.64,-0.14,-19.69,-0.47
23573,0.00,0.00,1.00,-0.06,-0.06,0.06,100.77,308.03,274.08,25.22,1550.12,0.21,-20.28,0.89
23596,0.00,0.00,1.00,-0.06,-0.06,0.06,74.01,306.45,272.56,25.24,1551.62,-0.18,-19.33,-0.40
23620,-0.00,0.00,1.00,-0.06,-0.06,0.12,74.01,306.45,272.56,25.21,1550.91,-0.09,-17.75,-0.77
23643,0.00,0.00,1.00,-0.12,-0.06,0.06,74.01,306.45,272.56,25.22,1550.61,-0.34,-16.96,0.58
23667,-0.00,0.00,1.00,-0.12,-0.12,0.00,74.01,306.45,272.56,25.24,1552.35,0.09,-16.27,-0.81
23691,0.00,0.00,1.00,-0.06,-0.06,0.00,74.01,306.45,272.56,25.21,1551.49,-0.09,-16.38,0.76
23714,-0.00,0.00,1.00,-0.06,-0.18,0.00,83.45,312.77,275.59,25.27,1548.32,0.23,-16.53,-0.68
23737,0.00,-0.00,1.00,-0.12,-0.12,0.18,83.45,312.77,275.59,25.23,1551.06,-0.06,-17.05,0.75
23761,-0.00,-0.00,0.99,-0.12,-0.18,0.12,83.45,312.77,275.59,25.22,1550.24,0.08,-16.82,-0.79
23785,0.00,-0.00,1.00,-0.06,0.06,0.18,83.45,312.77,275.59,25.22,1551.92,0.05,-17.25,0.71
23808,0.00,0.00,1.00,-0.18,-0.06,0.06,83.45,312.77,275.59,25.22,1551.31,-0.21,-16.88,-0.77
23838,0.00,-0.00,1.00,-0.06,-0.18,0.12,102.35,319.09,281.65,25.22,1552.74,0.23,-17.98,0.83
23862,0.00,0.00,1.00,-0.12,0.00,0.06,102.35,319.09,281.65,25.23,1549.78,-0.09,-18.82,-0.15
23885,-0.00,-0.00,1.00,-0.18,0.00,0.12,102.35,319.09,281.65,25.23,1551.68,0.40,-19.65,0.75
23909,0.00,0.00,1.00,-0.06,-0.06,0.00,102.35,319.09,281.65,25.24,1549.87,-0.42,-19.52,-0.51
23932,0.00,-0.00,1.00,-0.12,-0.18,0.06,102.35,319.09,281.65,25.23,1550.21,0.12,-20.04,0.71
23956,-0.00,0.00,1.00,-0.06,-0.12,0.06,102.35,319.09,281.65,25.21,1548.68,-0.11,-19.72,-0.70
23989,-0.00,0.00,1.00,-0.12,-0.12,0.12,67.71,306.45,278.62,25.23,1551.31,-0.34,-17.51,-1.18
24012,-0.00,0.00,1.00,-0.12,-0.06,0.06,67.71,306.45,278.62,25.23,1549.66,0.08,-16.72,0.17
24036,0.00,0.00,1.00,-0.12,-0.12,0.12,67.71,306.45,278.62,25.24,1549.87,-0.45,-15.64,-0.93
24060,0.00,0.00,1.00,-0.06,-0.06,0.00,67.71,306.45,278.62,25.21,1553.81,0.10,-15.64,0.59
24083,0.00,-0.00,1.00,-0.06,-0.06,0.18,85.03,304.87,271.05,25.23,1549.85,-0.13,-16.88,0.06
24109,-0.00,0.00,1.00,-0.18,-0.18,0.18,85.03,304.87,271.05,25.23,1550.54,0.51,-17.71,0.97
24132,-0.00,0.00,1.00,-0.18,-0.12,0.12,85.03,304.87,271.05,25.24,1549.60,-0.16,-17.42,-0.45
24156,0.00,0.00,1.00,-0.06,-0.12,0.12,85.03,304.87,271.05,25.24,1551.02,0.17,-17.86,0.96
24179,0.00,0.00,1.00,-0.12,-0.06,0.12,85.03,304.87,271.05,25.21,1550.66,-0.14,-17.54,-0.57
24203,0.00,0.00,1.00,-0.12,-0.12,0.18,85.03,304.87,271.05,25.22,1550.14,0.04,-17.96,0.87
24227,0.00,0.00,1.00,-0.06,-0.12,0.12,97.63,308.03,268.02,25.25,1548.37,-0.08,-18.68,-0.30
24252,-0.00,0.00,1.00,-0.06,-0.06,0.06,97.63,308.03,268.02,25.22,1553.44,0.45,-19.39,0.99
24285,-0.00,-0.00,1.00,-0.06,-0.06,0.12,97.63,308.03,268.02,25.22,1550.27,-0.27,-19.15,-1.09
24317,0.00,-0.00,1.00,0.00,-0.12,0.12,97.63,308.03,268.02,25.25,1548.56,0.24,-19.84,0.83
24341,0.01,0.00,1.00,-0.18,-0.06,0.06,89.75,319.09,281.65,25.23,1552.06,-0.49,-19.14,-0.45
24365,-0.00,-0.00,1.00,-0.12,-0.12,0.00,89.75,319.09,281.65,25.23,1548.83,0.68,-18.66,0.29
24390,-0.00,0.00,1.00,-0.12,-0.06,0.06,89.75,319.09,281.65,25.24,1551.73,-0.57,-18.02,-0.60
24413,-0.00,0.00,1.00,-0.12,-0.12,0.06,89.75,319.09,281.65,25.24,1551.33,0.44,-18.25,0.58
24437,0.00,0.00,1.00,-0.06,-0.12,0.06,89.75,319.09,281.65,25.24,1550.69,-0.54,-17.86,-0.59
24461,0.00,0.00,1.00,-0.12,-0.06,0.06,86.60,306.45,275.59,25.23,1550.02,0.30,-18.23,0.67
24484,-0.00,0.00,1.00,-0.12,-0.12,0.06,86.60,306.45,275.59,25.24,1550.20,-0.27,-17.80,-0.71
24508,0.00,0.00,1.00,-0.12,-0.12,0.00,86.60,306.45,275.59,25.24,1552.61,0.20,-18.17,0.73
24533,-0.00,-0.00,1.00,-0.06,-0.12,0.06,86.60,306.45,275.59,25.24,1552.09,-0.14,-17.80,-0.87
24557,-0.00,0.00,1.00,-0.06,-0.24,0.00,86.60,306.45,275.59,25.24,1549.55,0.15,-18.17,0.63
24580,-0.00,0.00,1.00,-0.12,-0.06,0.06,83.45,303.29,284.68,25.26,1550.80,-0.14,-17.66,-0.85
24604,0.00,0.00,1.00,-0.06,-0.06,0.06,83.45,303.29,284.68,25.25,1550.59,0.06,-17.93,0.69
24628,0.00,0.00,1.00,-0.12,-0.12,0.06,83.45,303.29,284.68,25.25,1551.91,-0.26,-17.49,-0.79
24651,-0.00,-0.00,1.00,-0.18,-0.12,0.12,83.45,303.29,284.68,25.23,1554.62,0.42,-17.85,0.58
24676,-0.00,0.00,1.00,-0.06,-0.18,0.12,83.45,303.29,284.68,25.24,1551.47,-0.43,-17.41,-0.80
24700,0.00,0.00,1.00,-0.12,-0.18,0.18,92.90,309.61,284.68,25.24,1550.87,0.04,-18.06,0.58
24724,0.00,0.00,1.00,-0.06,-0.12,0.06,92.90,309.61,284.68,25.24,1550.47,-0.10,-18.38,-0.68
24747,0.00,0.00,1.00,-0.06,-0.12,0.12,92.90,309.61,284.68,25.23,1553.18,0.15,-18.86,0.76
24771,0.00,0.00,1.00,0.00,-0.12,0.18,92.90,309.61,284.68,25.24,1550.68,-0.33,-18.59,-0.68
24796,0.00,0.00,1.00,-0.12,-0.12,0.12,92.90,309.61,284.68,25.24,1550.74,0.19,-19.03,0.81
24820,0.00,0.00,1.00,-0.12,-0.12,0.06,92.90,309.61,284.68,25.23,1550.41,-0.32,-18.67,-0.62
24844,0.00,0.00,1.00,-0.06,-0.18,0.06,86.60,306.45,278.62,25.24,1553.52,0.25,-18.66,0.79
24867,0.00,-0.00,1.00,-0.12,-0.12,0.18,86.60,306.45,278.62,25.27,1549.18,-0.23,-18.18,-0.66
24891,0.00,0.00,1.00,-0.12,-0.06,-0.06,86.60,306.45,278.62,25.26,1552.08,0.08,-18.40,0.83
24914,-0.00,0.00,1.00,0.00,-0.12,0.18,86.60,306.45,278.62,25.24,1551.62,-0.11,-17.96,-0.68
24944,-0.00,0.00,1.00,-0.12,-0.18,0.12,86.60,306.45,278.62,25.24,1550.10,0.23,-18.34,1.19
24968,-0.00,0.00,1.00,-0.12,-0.06,0.18,94.48,301.71,271.05,25.26,1554.16,-0.02,-18.46,-0.33
24991,0.00,0.00,1.00,-0.12,-0.06,-0.06,94.48,301.71,271.05,25.25,1551.01,-0.01,-19.10,1.01
25015,0.00,0.00,1.00,-0.18,-0.06,0.12,94.48,301.71,271.05,25.23,1549.58,-0.21,-18.98,-0.51
25038,0.00,0.00,1.00,-0.06,-0.12,0.06,94.48,301.71,271.05,25.25,1550.06,0.12,-19.52,0.83
25064,0.00,0.00,1.00,-0.06,-0.12,0.12,94.48,301.71,271.05,25.24,1549.24,-0.27,-19.24,-0.74
25087,0.00,0.00,1.00,-0.18,-0.06,0.12,94.48,301.71,274.08,25.28,1548.14,0.18,-19.65,0.68
25111,0.00,0.00,1.00,-0.12,-0.12,0.12,94.48,301.71,274.08,25.27,1551.16,-0.26,-19.33,-0.72
25135,0.00,0.00,0.99,-0.18,-0.18,0.18,94.48,301.71,274.08,25.27,1551.92,-0.00,-19.73,0.73
25158,0.00,0.00,1.00,-0.06,-0.12,0.06,94.48,301.71,274.08,25.24,1550.61,-0.33,-19.41,-0.73
25182,0.00,0.00,1.00,-0.18,-0.06,0.06,94.48,301.71,274.08,25.27,1552.23,0.21,-19.78,0.65
25207,-0.00,0.00,1.00,-0.18,-0.06,0.12,85.03,308.03,261.96,25.26,1549.48,-0.22,-18.86,-0.78
25231,0.00,0.00,1.00,-0.06,-0.06,0.18,85.03,308.03,261.96,25.24,1546.71,-0.01,-18.59,0.73
25254,0.00,0.00,1.00,-0.12,0.00,0.12,85.03,308.03,261.96,25.26,1551.52,-0.30,-17.98,-0.72
25278,0.00,0.00,1.00,-0.12,-0.12,0.06,85.03,308.03,261.96,25.26,1551.00,-0.04,-18.18,0.76
25302,0.00,0.00,1.00,-0.12,-0.12,0.06,85.03,308.03,261.96,25.27,1555.22,-0.18,-17.68,-0.74
25325,-0.00,0.00,1.00,-0.06,-0.06,0.06,88.18,308.03,268.02,25.26,1551.40,0.23,-18.15,0.71
25351,0.00,0.00,1.00,-0.12,-0.06,-0.06,88.18,308.03,268.02,25.27,1550.88,-0.32,-17.84,-0.81
25374,-0.00,0.00,1.00,-0.06,-0.12,0.06,88.18,308.03,268.02,25.27,1553.63,0.30,-18.23,0.58
25398,0.00,0.00,1.00,-0.12,-0.06,0.18,88.18,308.03,268.02,25.25,1551.09,-0.52,-17.92,-0.65
25421,-0.00,0.00,1.00,-0.06,-0.06,0.12,88.18,308.03,268.02,25.26,1552.65,0.29,-18.30,0.63
25445,-0.00,-0.00,1.00,-0.06,-0.12,0.06,86.60,322.24,272.56,25.27,1551.34,-0.21,-17.67,-0.78
25470,-0.00,0.00,1.00,-0.06,-0.06,0.00,86.60,322.24,272.56,25.26,1548.63,0.21,-17.82,0.83
25494,-0.00,0.00,1.00,-0.06,-0.18,-0.06,86.60,322.24,272.56,25.27,1551.67,-0.17,-17.32,-0.63
25518,0.00,0.00,1.00,-0.06,-0.12,0.06,86.60,322.24,272.56,25.27,1549.57,0.11,-17.60,0.85
25541,0.00,0.00,1.00,-0.18,-0.12,0.18,86.60,322.24,272.56,25.26,1550.03,-0.29,-17.15,-0.63
25565,0.00,0.00,1.00,-0.12,-0.18,0.06,83.45,319.09,275.59,25.28,1550.76,0.16,-17.34,0.86
25589,-0.00,-0.00,1.00,-0.06,-0.12,0.12,83.45,319.09,275.59,25.26,1548.65,-0.12,-16.89,-0.66
25614,-0.00,-0.00,1.00,-0.06,-0.12,0.12,83.45,319.09,275.59,25.27,1550.48,0.30,-17.25,0.87
25638,0.00,-0.00,1.00,-0.06,-0.06,0.12,83.45,319.09,275.59,25.26,1551.03,-0.17,-16.85,-0.62
25661,0.00,-0.00,1.00,-0.12,-0.06,0.12,83.45,319.09,275.59,25.27,1549.32,0.06,-17.22,0.83
25693,0.00,0.00,1.00,-0.12,-0.06,0.12,88.18,314.35,277.10,25.27,1548.71,-0.19,-17.24,-1.19
25724,0.00,0.00,1.00,-0.06,-0.18,0.12,88.18,314.35,277.10,25.26,1551.71,0.11,-17.86,0.82
25749,-0.00,0.00,1.00,-0.12,-0.18,0.06,88.18,314.35,277.10,25.27,1551.67,-0.03,-17.54,-0.82
25773,0.00,0.00,1.00,-0.12,-0.12,0.12,88.18,314.35,277.10,25.27,1549.75,0.05,-17.94,0.70
25797,0.00,0.00,1.00,-0.06,-0.12,0.06,88.18,314.35,277.10,25.27,1548.99,-0.24,-17.62,-0.78
25821,0.00,0.00,1.00,-0.12,-0.18,0.12,69.28,308.03,277.10,25.28,1551.86,-0.05,-16.28,0.11
25844,0.00,0.00,1.00,-0.06,-0.12,0.12,69.28,308.03,277.10,25.27,1550.57,-0.25,-15.06,-0.86
25868,0.00,0.00,1.00,-0.12,-0.12,0.06,69.28,308.03,277.10,25.27,1551.36,0.01,-15.32,0.70
25893,-0.00,-0.00,1.00,-0.06,0.00,0.12,69.28,308.03,277.10,25.28,1549.59,-0.01,-14.84,-0.95
25916,0.00,-0.00,1.00,-0.18,-0.06,0.00,69.28,308.03,277.10,25.27,1550.84,-0.01,-15.20,0.60
25940,0.00,0.00,1.00,-0.18,-0.12,0.12,77.16,296.97,275.59,25.26,1550.45,0.10,-16.16,-0.37
25964,0.00,0.00,1.00,-0.12,-0.12,0.00,77.16,296.97,275.59,25.29,1549.22,-0.14,-16.67,1.06
25987,0.00,0.00,1.00,-0.12,-0.12,0.06,77.16,296.97,275.59,25.29,1552.15,-0.21,-16.40,-0.52
26017,0.00,0.00,1.00,-0.06,-0.12,0.12,77.16,296.97,275.59,25.26,1551.15,0.22,-16.94,1.31
26041,0.00,0.00,1.00,-0.12,-0.12,0.00,77.16,296.97,275.59,25.29,1552.68,-0.09,-16.58,-0.24
26064,-0.00,0.00,1.00,-0.06,-0.12,0.12,80.30,309.61,269.53,25.27,1551.08,0.49,-16.92,1.04
26088,-0.00,0.00,1.00,-0.12,-0.06,0.00,80.30,309.61,269.53,25.29,1551.51,-0.05,-16.54,-0.43
26112,0.00,-0.00,0.99,0.00,-0.12,0.18,80.30,309.61,269.53,25.29,1551.30,-0.14,-17.04,0.89
26135,0.00,0.00,1.00,-0.06,-0.12,0.12,80.30,309.61,269.53,25.28,1549.74,-0.07,-16.66,-0.66
26160,0.00,0.00,1.00,-0.06,-0.06,0.06,80.30,309.61,269.53,25.27,1550.54,0.08,-17.05,0.94
26184,-0.00,0.00,1.00,-0.12,-0.06,0.06,89.75,315.93,266.50,25.29,1552.00,-0.00,-17.23,-0.57
26208,0.00,0.00,1.00,-0.18,-0.06,0.18,89.75,315.93,266.50,25.27,1552.15,0.04,-17.83,0.84
26231,-0.00,0.00,1.00,-0.18,-0.12,0.12,89.75,315.93,266.50,25.28,1551.66,0.13,-17.60,-0.63
26255,0.00,-0.00,1.00,-0.06,-0.18,0.06,89.75,315.93,266.50,25.27,1550.96,-0.04,-18.12,0.76
26279,0.00,0.00,1.00,-0.06,-0.06,0.12,89.75,315.93,266.50,25.27,1551.63,-0.05,-17.81,-0.74
26304,0.00,0.00,1.00,0.06,-0.18,0.18,94.48,314.35,280.13,25.27,1551.54,0.12,-18.43,0.81
26328,0.00,0.00,1.00,-0.06,-0.06,0.12,94.48,314.35,280.13,25.27,1552.73,-0.33,-18.36,-0.62
26351,-0.00,0.00,1.00,-0.18,-0.12,0.12,94.48,314.35,280.13,25.30,1551.59,0.28,-18.83,0.71
26375,0.00,0.00,1.00,-0.06,-0.06,0.18,94.48,314.35,280.13,25.27,1550.13,-0.35,-18.56,-0.63
26398,0.00,0.00,1.00,-0.06,-0.12,0.00,94.48,314.35,280.13,25.27,1551.59,0.20,-18.96,0.76
26424,0.00,0.00,1.00,-0.12,-0.06,0.06,94.48,314.35,280.13,25.29,1552.33,-0.35,-18.64,-0.76
26447,0.00,0.00,1.00,-0.12,-0.12,0.00,78.73,304.87,261.96,25.28,1549.62,0.10,-17.84,0.51
26471,0.00,0.00,1.00,0.00,-0.12,0.06,78.73,304.87,261.96,25.31,1551.19,-0.32,-17.02,-0.78
26494,0.00,-0.00,1.00,-0.12,-0.18,0.06,78.73,304.87,261.96,25.27,1550.59,0.25,-17.26,0.63
26518,-0.00,0.00,1.00,-0.06,-0.12,0.06,78.73,304.87,261.96,25.30,1549.52,-0.13,-16.70,-0.81
26542,0.00,0.00,1.00,-0.06,-0.12,0.00,78.73,304.87,261.96,25.28,1550.25,-0.17,-17.01,0.74
26567,0.00,0.00,1.00,-0.06,0.00,0.06,86.60,300.13,266.50,25.28,1551.19,0.25,-17.62,-0.54
26591,-0.00,0.00,1.00,-0.06,0.00,0.06,86.60,300.13,266.50,25.28,1549.61,0.23,-18.17,0.85
26614,-0.00,0.00,1.00,-0.12,-0.12,0.00,86.60,300.13,266.50,25.28,1552.17,-0.19,-17.91,-0.62
26638,0.00,0.00,1.00,-0.12,-0.12,0.06,86.60,300.13,266.50,25.26,1552.90,0.18,-18.34,0.81
26661,-0.00,0.00,1.00,-0.12,-0.06,0.00,86.60,300.13,266.50,25.28,1549.21,-0.04,-18.00,-0.69
26685,-0.00,0.00,1.00,-0.06,-0.06,0.06,94.48,295.39,280.13,25.28,1549.63,0.23,-18.69,0.70
26710,-0.00,0.00,1.00,0.00,-0.12,0.06,94.48,295.39,280.13,25.29,1549.21,-0.21,-19.15,-0.56
26734,-0.00,0.00,1.00,0.00,-0.18,0.12,94.48,295.39,280.13,25.30,1549.76,0.39,-19.66,0.74
26757,-0.00,0.00,1.00,-0.12,-0.24,0.00,94.48,295.39,280.13,25.29,1549.63,-0.20,-19.48,-0.65
26781,0.00,-0.00,1.00,-0.06,-0.06,0.00,94.48,295.39,280.13,25.26,1551.26,0.23,-19.97,0.70
26805,0.00,0.00,1.00,-0.12,-0.24,-0.06,89.75,309.61,278.62,25.29,1551.80,-0.35,-19.21,-0.62
26830,-0.00,-0.00,1.00,-0.12,-0.12,0.06,89.75,309.61,278.62,25.32,1550.55,0.47,-19.10,0.72
26853,0.00,0.00,1.00,-0.12,-0.06,0.06,89.75,309.61,278.62,25.30,1548.57,-0.38,-18.54,-0.50
26877,0.00,0.00,1.00,-0.12,-0.06,-0.06,89.75,309.61,278.62,25.31,1553.69,0.38,-18.76,0.77
26901,-0.00,0.00,1.00,-0.12,-0.06,0.06,89.75,309.61,278.62,25.29,1551.80,-0.17,-18.33,-0.65
26924,0.00,0.00,1.00,-0.12,-0.06,-0.12,89.75,312.77,284.68,25.28,1550.76,0.13,-18.61,0.82
26948,-0.00,0.00,1.00,-0.12,-0.18,0.06,89.75,312.77,284.68,25.29,1552.53,-0.13,-18.18,-0.69
26973,-0.00,0.00,1.00,-0.06,-0.12,0.00,89.75,312.77,284.68,25.27,1553.17,0.36,-18.53,0.84
26997,-0.00,0.00,1.00,-0.12,-0.18,0.00,89.75,312.77,284.68,25.30,1550.70,-0.18,-18.12,-0.60
27020,-0.00,0.00,1.00,-0.18,0.00,0.12,89.75,312.77,284.68,25.30,1550.28,0.35,-18.43,0.81
27044,0.00,0.00,1.00,-0.06,-0.18,0.12,85.03,308.03,280.13,25.30,1551.37,-0.29,-17.87,-0.57
27068,-0.00,0.00,1.00,-0.06,-0.18,0.18,85.03,308.03,280.13,25.30,1554.54,0.33,-18.07,0.81
27117,-0.00,0.00,1.00,-0.06,-0.18,0.12,85.03,308.03,280.13,25.31,1553.64,-0.86,-17.06,-2.13
27141,-0.00,0.00,1.00,-0.12,-0.06,0.12,85.03,308.03,280.13,25.30,1551.26,-0.31,-17.46,-0.65
27164,-0.00,0.00,0.99,-0.12,-0.06,0.06,85.03,308.03,280.13,25.30,1551.26,0.36,-17.83,0.71
27188,0.00,0.00,1.00,-0.12,-0.12,0.18,86.60,303.29,269.53,25.29,1550.55,-0.42,-17.66,-0.60
27212,0.00,0.00,1.00,-0.06,-0.12,0.06,86.60,303.29,269.53,25.29,1551.01,0.28,-18.13,0.70
27235,0.00,0.00,1.00,0.00,-0.06,0.06,86.60,303.29,269.53,25.31,1547.59,-0.33,-17.82,-0.67
27260,0.00,0.00,1.00,0.00,-0.06,0.00,86.60,303.29,269.53,25.29,1553.76,0.28,-18.28,0.79
27284,-0.00,0.00,1.00,-0.06,0.06,0.00,86.60,303.29,269.53,25.30,1550.76,-0.11,-17.94,-0.69
27308,0.00,0.00,1.00,-0.06,-0.12,0.12,78.73,311.19,283.16,25.29,1548.93,-0.14,-17.33,0.74
27331,0.00,0.00,1.00,-0.12,-0.18,0.00,78.73,311.19,283.16,25.30,1551.62,-0.20,-16.75,-0.77
27355,0.00,0.00,1.00,-0.06,-0.18,0.06,78.73,311.19,283.16,25.30,1551.46,0.16,-16.95,0.74
27380,0.00,0.00,1.00,-0.18,-0.06,0.12,78.73,311.19,283.16,25.30,1550.52,-0.25,-16.40,-0.83
27404,0.00,0.00,1.00,-0.06,-0.06,0.06,78.73,311.19,283.16,25.29,1550.73,0.12,-16.73,0.68
27427,-0.00,0.00,1.00,-0.12,-0.12,0.18,91.33,308.03,271.05,25.30,1553.69,0.09,-17.84,0.04
27451,0.00,0.00,1.00,-0.18,-0.18,0.00,91.33,308.03,271.05,25.32,1552.10,-0.03,-18.59,0.98
27475,0.00,0.00,1.00,-0.06,-0.06,0.18,91.33,308.03,271.05,25.31,1552.28,-0.11,-18.31,-0.54
27498,0.00,0.00,1.00,-0.18,-0.18,0.12,91.33,308.03,271.05,25.30,1551.40,0.11,-18.75,0.88
27523,-0.00,0.00,1.00,-0.12,-0.06,-0.06,91.33,308.03,271.05,25.29,1549.10,-0.11,-18.43,-0.75
27547,0.00,0.00,1.00,-0.12,-0.06,0.12,86.60,303.29,272.56,25.31,1550.23,0.04,-18.61,0.80
27571,0.00,0.00,1.00,-0.06,-0.12,0.00,86.60,303.29,272.56,25.31,1550.81,-0.18,-18.16,-0.70
27594,0.00,0.00,1.00,-0.12,-0.18,0.00,86.60,303.29,272.56,25.31,1550.88,0.13,-18.48,0.76
27618,0.00,-0.00,1.00,-0.06,-0.12,0.00,86.60,303.29,272.56,25.32,1548.98,-0.23,-18.11,-0.74
27641,-0.00,0.00,1.00,-0.12,-0.18,0.06,86.60,303.29,272.56,25.32,1550.42,0.30,-18.44,0.67
27667,0.00,0.00,1.00,-0.18,-0.06,0.24,80.30,303.29,275.59,25.30,1554.32,-0.35,-17.70,-0.78
27691,0.00,0.00,1.00,-0.06,-0.06,0.12,80.30,303.29,275.59,25.33,1550.96,0.21,-17.76,0.69
27714,0.00,0.00,1.00,-0.06,0.00,0.06,80.30,303.29,275.59,25.32,1551.17,-0.27,-17.17,-0.71
27738,-0.00,0.00,1.00,-0.12,-0.06,0.00,80.30,303.29,275.59,25.33,1548.86,0.31,-17.45,0.71
27761,0.00,-0.00,1.00,-0.06,-0.12,0.12,80.30,303.29,275.59,25.33,1552.64,-0.35,-17.04,-0.69
27787,0.00,0.00,1.00,-0.06,-0.06,0.18,89.75,300.13,272.56,25.33,1551.36,0.19,-17.79,0.74
27810,0.00,-0.00,1.00,-0.06,-0.12,0.06,89.75,300.13,272.56,25.32,1551.24,-0.24,-18.08,-0.61
27834,0.00,0.00,1.00,0.00,-0.06,0.12,89.75,300.13,272.56,25.32,1550.38,0.12,-18.60,0.80
27857,0.00,0.00,1.00,-0.12,-0.12,0.12,89.75,300.13,272.56,25.30,1551.30,-0.17,-18.40,-0.67
27881,-0.00,0.00,1.00,-0.12,-0.12,0.06,89.75,300.13,272.56,25.31,1551.32,0.26,-18.86,0.73
27905,0.00,0.00,1.00,-0.12,-0.06,0.12,89.75,300.13,272.56,25.32,1552.24,-0.34,-18.57,-0.68
27930,-0.00,-0.00,1.00,-0.12,-0.18,0.06,92.90,309.61,275.59,25.32,1549.40,0.43,-19.07,0.66
27954,0.00,0.00,1.00,-0.12,-0.06,0.06,92.90,309.61,275.59,25.32,1553.43,-0.45,-18.71,-0.54
27977,0.00,0.00,1.00,-0.12,0.00,0.00,92.90,309.61,275.59,25.31,1552.91,0.27,-19.09,0.72
28001,0.00,0.00,1.00,-0.06,-0.18,0.00,92.90,309.61,275.59,25.32,1551.56,-0.28,-18.73,-0.68
28024,-0.00,0.00,1.00,-0.12,-0.18,0.00,92.90,309.61,275.59,25.30,1549.34,0.36,-19.09,0.67
28048,0.00,-0.00,1.00,-0.06,-0.18,0.12,88.18,301.71,264.99,25.33,1549.61,-0.28,-18.61,-0.72
28073,-0.00,0.00,1.00,0.00,-0.06,0.12,88.18,301.71,264.99,25.31,1551.66,0.30,-18.91,0.78
28097,-0.00,0.00,1.00,-0.06,-0.12,0.12,88.18,301.71,264.99,25.33,1549.28,-0.18,-18.45,-0.64
28121,0.00,0.00,1.00,-0.06,-0.06,0.06,88.18,301.71,264.99,25.30,1552.14,0.17,-18.77,0.81
28144,-0.00,0.00,1.00,-0.06,-0.12,0.00,88.18,301.71,264.99,25.32,1549.70,-0.12,-18.36,-0.68
28168,-0.00,0.00,1.00,-0.12,-0.18,0.06,77.16,312.77,254.39,25.33,1553.83,-0.00,-17.18,0.39
28198,-0.00,0.00,1.00,-0.06,-0.12,0.00,77.16,312.77,254.39,25.31,1554.22,0.14,-16.13,-1.29
28221,0.00,0.00,1.00,-0.06,-0.06,0.06,77.16,312.77,254.39,25.33,1550.04,-0.00,-16.42,0.29
28245,-0.00,0.00,1.00,-0.12,-0.06,0.00,77.16,312.77,254.39,25.30,1553.12,0.07,-15.84,-0.95
28268,-0.00,0.00,0.99,-0.12,-0.06,0.12,77.16,312.77,254.39,25.32,1550.74,0.08,-16.22,0.60
28292,-0.00,0.00,1.00,-0.06,-0.06,0.12,92.90,306.45,272.56,25.33,1551.16,0.32,-17.60,0.59
28316,0.00,0.00,1.00,-0.06,-0.18,0.12,92.90,306.45,272.56,25.31,1550.43,-0.35,-18.32,-0.25
28349,-0.00,0.00,1.00,-0.12,-0.06,0.06,92.90,306.45,272.56,25.33,1550.74,0.84,-19.17,1.17
28373,0.00,0.00,1.00,-0.18,-0.18,0.06,92.90,306.45,272.56,25.31,1546.59,-0.04,-18.85,-0.15
28397,0.00,0.00,1.00,-0.06,-0.12,0.06,92.90,306.45,272.56,25.32,1553.37,-0.04,-19.25,0.83
28420,0.00,0.00,1.00,-0.06,-0.12,0.12,100.77,323.82,268.02,25.33,1547.60,-0.23,-19.07,-0.64
28444,0.00,0.00,1.00,-0.18,-0.06,0.06,100.77,323.82,268.02,25.32,1551.31,0.00,-19.54,0.76
28469,0.00,-0.00,1.00,-0.12,-0.18,0.06,100.77,323.82,268.02,25.33,1549.61,-0.24,-19.24,-0.82
28493,-0.00,0.00,1.00,-0.06,-0.12,0.12,100.77,323.82,268.02,25.33,1548.70,0.24,-19.62,0.59
28534,-0.00,0.00,1.00,-0.18,-0.18,0.06,89.75,312.77,272.56,25.31,1553.43,-0.61,-18.26,-1.70
28558,0.00,0.00,1.00,-0.12,-0.12,0.12,89.75,312.77,272.56,25.31,1551.54,-0.15,-18.60,-0.17
28582,0.00,-0.00,1.00,-0.06,0.00,0.12,89.75,312.77,272.56,25.33,1550.38,0.20,-18.41,0.41
28605,-0.00,0.00,1.00,-0.06,-0.18,0.06,89.75,312.77,272.56,25.33,1549.97,-0.28,-18.04,-0.88
28630,0.00,0.00,1.00,-0.12,-0.12,0.00,89.75,312.77,272.56,25.34,1551.87,0.17,-18.43,0.69
28654,-0.00,0.00,1.00,-0.06,-0.12,0.06,86.60,306.45,278.62,25.32,1553.79,-0.05,-17.96,-0.81
28678,-0.00,0.00,1.00,-0.12,-0.12,0.12,86.60,306.45,278.62,25.33,1549.18,0.19,-18.26,0.71
28701,0.00,0.00,1.00,-0.12,-0.18,0.12,86.60,306.45,278.62,25.33,1550.61,-0.43,-17.88,-0.69
28725,-0.00,0.00,1.00,-0.06,-0.06,0.06,86.60,306.45,278.62,25.35,1550.98,0.34,-18.21,0.63
28750,0.00,0.00,1.00,0.00,-0.12,0.18,86.60,306.45,278.62,25.35,1550.21,-0.65,-17.78,-0.64
28774,-0.00,0.00,1.00,-0.12,-0.06,0.18,77.16,312.77,284.68,25.33,1550.27,0.46,-17.29,0.41
28798,0.00,0.00,1.00,0.00,-0.12,0.12,77.16,312.77,284.68,25.34,1548.66,-0.41,-16.59,-0.75
28821,-0.00,0.00,1.00,0.00,-0.12,0.00,77.16,312.77,284.68,25.33,1550.06,0.26,-16.71,0.68
28845,0.00,-0.00,1.00,-0.06,-0.18,0.12,77.16,312.77,284.68,25.33,1551.98,-0.26,-16.22,-0.75
28868,0.00,0.00,1.00,-0.06,-0.18,0.12,77.16,312.77,284.68,25.32,1551.74,0.09,-16.48,0.77
28893,-0.00,0.00,1.00,-0.12,-0.12,0.12,77.16,312.77,284.68,25.31,1551.09,-0.13,-16.01,-0.87
28917,0.00,0.00,1.00,-0.06,-0.12,0.06,85.03,323.82,274.08,25.33,1551.67,0.06,-16.57,0.62
28941,-0.00,0.00,1.00,-0.12,-0.12,0.06,85.03,323.82,274.08,25.36,1553.78,-0.09,-16.49,-0.76
28964,-0.00,0.00,1.00,-0.06,-0.18,0.18,85.03,323.82,274.08,25.36,1551.70,0.19,-16.94,0.72
28988,-0.00,0.00,1.00,0.00,-0.12,0.06,85.03,323.82,274.08,25.33,1551.07,-0.17,-16.60,-0.75
29012,-0.00,0.00,1.00,-0.12,-0.12,0.12,85.03,323.82,274.08,25.33,1552.80,0.19,-17.04,0.71
29037,0.00,0.00,1.00,-0.12,-0.06,0.06,92.90,312.77,281.65,25.34,1552.11,-0.44,-17.89,-0.28
29061,-0.00,0.00,1.00,-0.18,-0.06,0.06,92.90,312.77,281.65,25.36,1553.14,0.49,-18.47,0.74
29084,-0.00,-0.00,1.00,-0.12,-0.12,0.00,92.90,312.77,281.65,25.35,1549.07,-0.22,-18.30,-0.64
29108,-0.00,0.00,1.00,-0.06,-0.12,0.06,92.90,312.77,281.65,25.34,1552.89,0.27,-18.75,0.75
29131,0.00,-0.00,1.00,-0.12,-0.12,0.12,92.90,312.77,281.65,25.33,1552.89,-0.27,-18.47,-0.69
29157,0.00,0.00,1.00,-0.12,-0.12,0.18,94.48,304.87,264.99,25.34,1549.47,0.21,-19.08,0.78
29180,0.00,-0.00,1.00,-0.12,0.00,0.18,94.48,304.87,264.99,25.35,1549.66,-0.25,-18.96,-0.68
29204,-0.00,0.00,1.00,-0.12,-0.06,0.06,94.48,304.87,264.99,25.35,1552.16,0.25,-19.40,0.70
29228,0.00,0.00,1.00,-0.18,-0.12,0.12,94.48,304.87,264.99,25.34,1548.49,-0.36,-19.11,-0.64
29251,0.00,0.00,1.00,-0.18,-0.12,0.06,94.48,304.87,264.99,25.35,1549.16,0.20,-19.50,0.73
29275,-0.00,0.00,1.00,0.00,-0.06,0.06,88.18,304.87,283.16,25.35,1549.81,-0.16,-18.78,-0.67
29305,0.00,0.00,1.00,-0.12,-0.12,0.12,88.18,304.87,283.16,25.35,1552.10,-0.04,-18.93,1.23
29328,-0.00,0.00,1.00,-0.12,-0.12,0.06,88.18,304.87,283.16,25.36,1551.30,-0.09,-18.47,-0.32
29352,-0.00,-0.00,1.00,-0.06,-0.12,0.18,88.18,304.87,283.16,25.34,1549.62,0.46,-18.67,0.82
29375,-0.00,0.00,0.99,-0.06,-0.24,0.06,88.18,304.87,283.16,25.35,1550.20,-0.27,-18.24,-0.53
29399,0.00,0.00,1.00,-0.06,-0.06,0.12,85.03,314.35,268.02,25.32,1551.85,0.31,-17.95,0.77
29424,0.00,0.00,1.00,-0.12,-0.12,0.06,85.03,314.35,268.02,25.35,1551.66,-0.44,-17.41,-0.68
29448,-0.00,0.00,1.00,-0.12,-0.18,0.00,85.03,314.35,268.02,25.34,1550.91,0.33,-17.71,0.64
29472,-0.00,0.00,1.00,-0.12,-0.12,0.12,85.03,314.35,268.02,25.34,1550.04,-0.11,-17.26,-0.80
29495,-0.00,0.00,1.00,0.00,-0.12,0.12,85.03,314.35,268.02,25.36,1549.04,0.19,-17.60,0.70
29519,0.00,-0.00,1.00,0.00,-0.06,0.12,86.60,306.45,272.56,25.35,1552.76,-0.41,-17.51,-0.72
29542,0.00,0.00,1.00,-0.06,-0.06,0.06,86.60,306.45,272.56,25.34,1554.41,0.18,-17.94,0.67
29568,-0.00,-0.00,1.00,-0.12,-0.12,0.06,86.60,306.45,272.56,25.34,1550.39,-0.13,-17.68,-0.94
29591,-0.00,0.00,1.00,-0.06,-0.06,0.12,86.60,306.45,272.56,25.34,1550.69,0.15,-18.05,0.57
29615,0.00,-0.00,1.00,-0.24,-0.12,0.00,86.60,306.45,272.56,25.34,1547.73,-0.35,-17.76,-0.84
29639,-0.00,0.00,1.00,-0.12,-0.12,0.00,92.90,315.93,269.53,25.34,1548.77,0.19,-18.31,0.54
29662,0.00,0.00,1.00,-0.06,-0.06,0.06,92.90,315.93,269.53,25.35,1548.27,-0.49,-18.22,-0.65
29686,0.00,0.00,1.00,0.00,-0.18,0.12,92.90,315.93,269.53,25.34,1550.56,0.23,-18.65,0.65
29711,-0.00,0.00,1.00,-0.12,-0.12,0.06,92.90,315.93,269.53,25.35,1549.58,-0.20,-18.29,-0.84
29735,0.00,0.00,1.00,-0.06,-0.12,0.06,92.90,315.93,269.53,25.35,1553.76,0.13,-18.70,0.63
29758,0.00,0.00,1.00,0.00,-0.18,0.06,89.75,315.93,278.62,25.37,1549.98,-0.37,-18.16,-0.78
29782,0.00,0.00,1.00,-0.06,-0.18,0.06,89.75,315.93,278.62,25.36,1551.51,0.21,-18.45,0.63
29805,-0.00,0.00,1.00,-0.06,-0.12,0.12,89.75,315.93,278.62,25.34,1550.65,-0.25,-17.98,-0.77
29831,-0.00,0.00,1.00,-0.12,-0.12,0.06,89.75,315.93,278.62,25.35,1552.61,0.21,-18.33,0.80
29854,-0.00,0.00,1.00,-0.18,0.00,0.12,89.75,315.93,278.62,25.35,1552.03,-0.17,-17.94,-0.69
29878,0.00,0.00,1.00,-0.12,-0.06,0.12,89.75,315.93,278.62,25.35,1551.38,0.15,-18.28,0.77
29902,-0.00,0.00,1.00,-0.06,-0.12,0.06,91.33,311.19,274.08,25.37,1550.17,-0.15,-18.11,-0.71
29941,0.00,-0.00,1.00,-0.12,-0.12,0.18,91.33,311.19,274.08,25.35,1550.75,-0.09,-18.92,1.67
29965,0.00,0.00,1.00,-0.06,-0.18,0.00,91.33,311.19,274.08,25.35,1550.96,-0.16,-18.54,0.06
