millis,ax,ay,az,gx,gy,gz,mx,my,mz,temp,alt,pitch,yaw,roll
13980,0.00,0.00,-1.00,-0.06,0.00,0.00,253.51,66.34,-63.60,26.46,1549.64,-28.06,-172.97,19.01
14003,0.00,0.00,-1.00,0.00,-0.06,0.00,253.51,66.34,-63.60,26.44,1548.14,-29.00,-172.53,19.78
14027,-0.00,0.00,-1.00,0.00,0.00,0.12,253.51,66.34,-63.60,26.44,1546.48,-29.96,-172.12,20.59
14051,-0.00,0.00,-1.01,-0.06,-0.06,0.12,253.51,66.34,-63.60,26.45,1548.37,-30.94,-171.75,21.43
14074,0.00,0.00,-1.00,-0.06,-0.06,0.18,253.51,66.34,-63.60,26.45,1548.45,-31.96,-171.42,22.32
14104,0.00,0.00,-1.01,-0.06,-0.06,0.12,267.68,64.76,-62.08,26.47,1546.22,-33.28,-171.09,23.51
14128,-0.00,0.00,-1.00,-0.12,-0.06,0.18,267.68,64.76,-62.08,26.45,1546.52,-34.34,-170.88,24.51
14152,-0.00,0.00,-1.00,-0.06,-0.12,0.12,267.68,64.76,-62.08,26.46,1548.47,-35.42,-170.73,25.55
14176,-0.00,0.00,-1.00,0.00,-0.06,0.18,267.68,64.76,-62.08,26.47,1547.13,-36.52,-170.65,26.64
14199,0.00,0.00,-1.00,-0.12,-0.06,0.12,267.68,64.76,-62.08,26.47,1548.38,-37.61,-170.62,27.78
14225,0.00,0.00,-1.00,-0.06,-0.12,0.18,250.36,63.19,-60.57,26.46,1549.26,-38.81,-170.67,29.05
14249,0.00,0.00,-1.00,0.06,-0.12,0.00,250.36,63.19,-60.57,26.47,1549.80,-39.91,-170.79,30.30
14273,0.00,0.00,-1.00,0.00,-0.06,0.12,250.36,63.19,-60.57,26.46,1547.93,-41.02,-170.98,31.60
14296,0.00,0.00,-1.00,-0.06,-0.06,0.18,250.36,63.19,-60.57,26.46,1547.02,-42.12,-171.25,32.95
14320,-0.00,0.00,-1.00,-0.06,-0.06,0.06,250.36,63.19,-60.57,26.47,1547.56,-43.22,-171.59,34.36
14344,-0.00,0.00,-1.00,0.00,0.00,0.12,258.23,58.45,-59.06,26.47,1546.98,-44.32,-172.03,35.87
14370,0.00,0.00,-1.00,0.00,0.06,0.12,258.23,58.45,-59.06,26.48,1549.22,-45.46,-172.58,37.52
14393,-0.00,0.00,-1.00,-0.06,-0.12,0.18,258.23,58.45,-59.06,26.44,1547.41,-46.52,-173.19,39.14
14417,0.00,0.00,-1.00,-0.12,-0.06,0.00,258.23,58.45,-59.06,26.47,1549.39,-47.56,-173.90,40.84
14441,0.00,0.00,-1.00,0.00,-0.06,0.00,258.23,58.45,-59.06,26.47,1548.69,-48.57,-174.70,42.62
14465,0.00,0.00,-1.00,0.00,-0.12,0.00,245.64,64.76,-56.03,26.47,1547.83,-49.58,-175.62,44.49
14490,0.00,0.00,-1.00,-0.06,0.00,0.12,245.64,64.76,-56.03,26.44,1547.00,-50.61,-176.70,46.55
14514,0.00,0.00,-1.00,-0.06,-0.06,0.06,245.64,64.76,-56.03,26.45,1547.34,-51.55,-177.83,48.58
14538,0.00,0.00,-1.00,0.00,-0.06,0.06,245.64,64.76,-56.03,26.47,1546.97,-52.45,-179.07,50.70
14561,0.00,0.00,-1.01,-0.06,0.00,0.12,245.64,64.76,-56.03,26.45,1547.03,-53.31,-180.40,52.90
14585,-0.00,0.00,-1.00,-0.06,0.00,0.18,251.94,55.29,-56.03,26.45,1550.21,-54.12,-181.85,55.22
14609,0.00,0.00,-1.00,-0.12,-0.12,0.06,251.94,55.29,-56.03,26.45,1548.10,-54.89,176.60,57.61
14634,0.00,0.00,-1.00,-0.06,-0.06,0.06,251.94,55.29,-56.03,26.45,1547.92,-55.64,174.82,60.27
14658,-0.00,0.00,-1.00,-0.06,-0.12,0.06,251.94,55.29,-56.03,26.46,1548.83,-56.30,173.05,62.86
14682,-0.00,-0.00,-1.00,-0.06,-0.06,0.06,251.94,55.29,-56.03,26.45,1547.73,-56.90,171.17,65.53
14706,0.00,0.00,-1.00,-0.06,-0.12,0.12,250.36,60.03,-60.57,26.47,1546.14,-57.45,169.18,68.31
14730,0.00,0.00,-1.00,-0.06,0.06,0.12,250.36,60.03,-60.57,26.47,1547.40,-57.93,167.12,71.14
14755,0.00,0.00,-1.00,-0.12,-0.06,0.06,250.36,60.03,-60.57,26.46,1549.66,-58.37,164.82,74.25
14779,0.00,-0.00,-1.01,-0.12,-0.12,0.06,250.36,60.03,-60.57,26.49,1548.68,-58.71,162.58,77.22
14803,0.00,0.00,-1.00,-0.06,-0.06,0.18,250.36,60.03,-60.57,26.48,1545.37,-58.98,160.29,80.25
14827,0.00,0.00,-1.00,-0.06,-0.06,0.06,256.66,66.34,-63.60,26.44,1547.36,-59.17,157.91,83.34
14850,-0.00,0.00,-1.00,0.00,0.00,0.06,256.66,66.34,-63.60,26.46,1547.72,-59.29,155.52,86.43
14876,-0.00,0.00,-1.00,0.00,-0.06,0.06,256.66,66.34,-63.60,26.47,1550.08,-59.32,152.95,89.74
14900,0.00,0.00,-1.00,-0.06,-0.06,0.18,256.66,66.34,-63.60,26.46,1548.62,-59.29,150.52,92.85
14923,0.00,0.00,-1.00,0.06,-0.06,0.06,256.66,66.34,-63.60,26.47,1549.25,-59.17,148.09,95.93
14957,0.00,0.00,-1.00,-0.18,-0.06,0.00,258.23,64.76,-62.08,26.45,1547.51,-58.88,144.72,100.23
14995,-0.00,0.00,-1.00,-0.06,0.00,0.12,258.23,64.76,-62.08,26.47,1544.37,-58.38,141.03,104.93
15018,-0.00,0.00,-1.01,-0.06,0.00,0.06,258.23,64.76,-62.08,26.47,1551.16,-57.98,138.77,107.82
15044,0.00,0.00,-1.00,-0.06,-0.18,0.12,258.23,64.76,-62.08,26.47,1545.44,-57.48,136.42,110.84
15067,0.00,0.00,-1.00,0.00,-0.06,0.12,258.23,64.76,-62.08,26.45,1546.08,-56.94,134.28,113.58
15091,-0.00,0.00,-1.00,-0.06,-0.06,0.06,259.81,69.50,-48.46,26.46,1548.53,-56.33,132.19,116.27
15115,-0.00,0.00,-1.00,-0.12,-0.12,0.06,259.81,69.50,-48.46,26.45,1546.59,-55.68,130.18,118.85
15139,0.00,0.00,-1.00,0.00,-0.06,0.06,259.81,69.50,-48.46,26.47,1546.66,-54.97,128.26,121.34
15173,0.00,0.00,-1.01,-0.06,-0.06,0.06,259.81,69.50,-48.46,26.46,1547.18,-53.87,125.67,124.73
15197,0.00,0.00,-1.00,-0.18,0.00,0.06,256.66,60.03,-51.48,26.48,1547.97,-53.05,123.96,127.01
15221,0.00,0.00,-1.00,-0.06,-0.06,0.06,256.66,60.03,-51.48,26.46,1545.28,-52.19,122.34,129.18
15245,0.00,0.00,-1.00,-0.12,-0.06,0.12,256.66,60.03,-51.48,26.47,1544.36,-51.30,120.80,131.28
15269,0.00,0.00,-1.01,0.00,0.06,0.12,256.66,60.03,-51.48,26.47,1550.26,-50.37,119.34,133.29
15292,-0.00,0.00,-1.00,-0.18,-0.06,0.18,256.66,60.03,-51.48,26.48,1548.67,-49.41,117.94,135.23
15318,0.00,0.00,-1.01,0.00,-0.06,0.12,259.81,50.55,-63.60,26.45,1544.42,-48.34,116.56,137.22
15342,-0.00,0.00,-1.00,-0.06,0.00,0.06,259.81,50.55,-63.60,26.46,1548.88,-47.33,115.35,138.98
15365,0.00,0.00,-1.00,-0.06,-0.12,0.06,259.81,50.55,-63.60,26.47,1549.13,-46.29,114.21,140.68
15389,-0.00,0.00,-1.00,-0.12,-0.06,-0.06,259.81,50.55,-63.60,26.47,1547.29,-45.22,113.11,142.32
15413,-0.00,0.00,-1.00,-0.12,-0.12,0.12,259.81,50.55,-63.60,26.48,1548.09,-44.14,112.07,143.90
15439,0.00,0.00,-1.00,-0.06,-0.06,0.06,259.81,50.55,-63.60,26.45,1551.08,-42.96,111.01,145.53
15463,-0.00,0.00,-1.00,-0.06,-0.12,0.12,264.53,67.92,-46.94,26.47,1547.17,-41.83,109.98,147.05
15486,-0.00,0.00,-1.01,-0.12,0.00,0.00,264.53,67.92,-46.94,26.48,1548.88,-40.69,108.99,148.50
15510,0.00,0.00,-1.01,-0.06,-0.06,0.12,264.53,67.92,-46.94,26.48,1546.44,-39.55,108.05,149.91
15534,0.00,0.00,-1.00,-0.12,0.00,0.06,264.53,67.92,-46.94,26.47,1547.81,-38.38,107.13,151.28
15559,0.00,0.00,-1.00,0.06,-0.12,-0.06,264.53,67.92,-46.94,26.47,1549.92,-37.13,106.20,152.69
15583,-0.00,0.00,-1.01,-0.06,-0.06,0.06,262.96,78.98,-66.63,26.48,1549.43,-35.93,105.36,153.98
15607,0.00,0.00,-1.00,-0.06,0.06,0.12,262.96,78.98,-66.63,26.45,1545.36,-34.75,104.56,155.22
15631,0.00,0.00,-1.00,-0.12,-0.06,0.06,262.96,78.98,-66.63,26.48,1545.42,-33.55,103.79,156.42
15655,-0.00,0.00,-1.00,-0.12,-0.06,0.00,262.96,78.98,-66.63,26.45,1547.41,-32.35,103.03,157.59
15679,-0.00,0.00,-1.00,-0.06,-0.06,-0.06,262.96,78.98,-66.63,26.48,1548.97,-31.14,102.29,158.74
15704,-0.00,0.00,-1.00,-0.06,0.00,0.06,266.11,75.82,-60.57,26.48,1547.87,-29.83,101.49,159.95
15728,-0.00,0.00,-1.00,-0.06,-0.06,0.06,266.11,75.82,-60.57,26.49,1548.39,-28.62,100.76,161.04
15752,0.00,0.00,-1.00,-0.06,-0.06,0.18,266.11,75.82,-60.57,26.47,1547.60,-27.41,100.04,162.11
15775,0.00,0.00,-1.00,-0.06,0.00,-0.06,266.11,75.82,-60.57,26.47,1547.87,-26.20,99.33,163.15
15799,0.00,0.00,-1.00,-0.06,-0.06,0.12,266.11,75.82,-60.57,26.49,1550.44,-24.99,98.62,164.16
15825,0.00,0.00,-1.00,-0.06,-0.06,0.06,250.36,63.19,-51.48,26.48,1549.34,-23.68,97.88,165.22
15848,-0.00,0.00,-1.00,-0.06,0.00,0.00,250.36,63.19,-51.48,26.49,1548.36,-22.47,97.20,166.18
15872,0.00,0.00,-1.00,-0.12,0.00,0.06,250.36,63.19,-51.48,26.49,1547.23,-21.26,96.51,167.11
15896,0.00,0.00,-1.00,-0.06,-0.06,0.06,250.36,63.19,-51.48,26.47,1547.23,-20.07,95.82,168.02
15919,0.00,0.00,-1.00,-0.06,-0.06,0.06,250.36,63.19,-51.48,26.48,1550.19,-18.88,95.12,168.90
15943,0.00,0.00,-1.00,-0.06,-0.06,-0.06,269.26,69.50,-57.54,26.51,1549.09,-17.69,94.41,169.78
15969,-0.00,0.00,-1.00,-0.06,-0.06,0.06,269.26,69.50,-57.54,26.47,1547.90,-16.45,93.64,170.67
15992,0.00,0.00,-1.00,0.00,-0.12,0.06,269.26,69.50,-57.54,26.45,1547.25,-15.30,92.91,171.49
16016,0.00,0.00,-1.00,-0.06,-0.12,0.12,269.26,69.50,-57.54,26.48,1548.33,-14.19,92.17,172.27
16040,0.00,0.00,-1.00,-0.12,0.00,0.12,269.26,69.50,-57.54,26.48,1548.84,-13.10,91.41,173.02
16064,0.00,0.00,-1.00,-0.06,0.00,0.18,250.36,60.03,-60.57,26.46,1549.55,-12.04,90.73,173.72
16089,-0.00,0.00,-1.00,0.06,-0.12,0.12,250.36,60.03,-60.57,26.48,1547.56,-10.95,89.99,174.43
16113,0.00,0.00,-1.00,-0.12,-0.06,0.00,250.36,60.03,-60.57,26.48,1546.89,-9.97,89.29,175.05
16136,-0.00,0.00,-1.00,-0.12,0.00,0.18,250.36,60.03,-60.57,26.47,1547.50,-9.05,88.59,175.62
16160,0.00,0.00,-1.00,-0.06,0.00,0.06,250.36,60.03,-60.57,26.48,1547.29,-8.19,87.88,176.15
16184,0.00,0.00,-1.00,-0.06,-0.06,0.12,270.83,64.76,-56.03,26.48,1544.29,-7.35,87.14,176.65
16208,0.00,0.00,-1.00,-0.12,-0.06,0.24,270.83,64.76,-56.03,26.48,1548.26,-6.57,86.41,177.09
16237,0.00,0.00,-1.00,0.00,0.00,0.00,270.83,64.76,-56.03,26.48,1547.41,-5.70,85.53,177.59
16261,0.00,0.00,-1.00,-0.06,0.00,0.00,270.83,64.76,-56.03,26.48,1548.69,-5.06,84.83,177.94
16285,0.00,0.00,-1.01,-0.06,0.00,0.06,270.83,64.76,-56.03,26.45,1548.82,-4.49,84.16,178.23
16309,0.00,0.00,-1.00,-0.06,-0.06,0.06,261.38,61.61,-56.03,26.46,1547.56,-3.98,83.53,178.50
16334,0.00,0.00,-1.00,-0.06,-0.06,0.18,261.38,61.61,-56.03,26.49,1547.47,-3.52,82.93,178.72
16377,-0.00,0.00,-1.00,-0.06,0.00,0.00,261.38,61.61,-56.03,26.47,1548.33,-2.81,81.94,179.06
16409,-0.00,0.00,-1.00,-0.12,-0.06,0.06,261.38,61.61,-56.03,26.44,1548.97,-2.38,81.27,179.26
16433,-0.00,0.00,-1.00,0.00,0.00,0.00,269.26,50.55,-66.63,26.48,1550.01,-2.11,81.03,179.35
16457,-0.00,0.00,-1.00,0.06,0.00,0.00,269.26,50.55,-66.63,26.48,1546.46,-1.87,80.81,179.42
16482,0.00,0.00,-1.00,0.00,-0.06,0.12,269.26,50.55,-66.63,26.47,1547.72,-1.68,80.60,179.50
16506,0.00,0.00,-1.01,0.00,-0.12,0.18,269.26,50.55,-66.63,26.49,1546.49,-1.51,80.39,179.57
16531,0.00,0.00,-1.00,-0.06,0.00,0.06,269.26,50.55,-66.63,26.48,1547.50,-1.36,80.19,179.62
16556,0.00,0.00,-1.00,-0.06,-0.06,0.06,267.68,64.76,-49.97,26.48,1548.54,-1.24,79.74,179.66
16580,-0.00,0.00,-1.00,0.00,-0.12,0.06,267.68,64.76,-49.97,26.49,1547.38,-1.10,79.33,179.71
16604,0.00,0.00,-1.00,-0.06,-0.06,0.00,267.68,64.76,-49.97,26.48,1549.43,-1.00,78.95,179.76
16628,0.00,0.00,-1.01,-0.06,-0.06,0.12,267.68,64.76,-49.97,26.48,1548.63,-0.91,78.60,179.78
16654,0.00,0.00,-1.00,0.00,0.06,0.12,267.68,64.76,-49.97,26.47,1547.38,-0.83,78.25,179.81
16678,-0.00,0.00,-1.00,0.06,-0.18,0.12,264.53,58.45,-59.06,26.47,1548.23,-0.74,78.05,179.84
16702,-0.00,0.00,-1.00,-0.06,-0.06,-0.12,264.53,58.45,-59.06,26.48,1550.47,-0.66,77.87,179.86
16727,0.00,0.00,-1.00,-0.06,-0.06,0.12,264.53,58.45,-59.06,26.48,1548.08,-0.60,77.70,179.88
16751,-0.00,0.00,-1.00,-0.06,-0.06,0.31,264.53,58.45,-59.06,26.47,1545.14,-0.54,77.54,179.89
16775,0.00,0.00,-1.01,-0.12,0.00,0.06,264.53,58.45,-59.06,26.46,1548.66,-0.50,77.39,179.90
16801,-0.00,0.00,-1.00,-0.06,-0.06,0.12,247.21,63.19,-54.51,26.45,1546.86,-0.46,77.08,179.91
16825,0.00,0.00,-1.00,-0.12,-0.12,0.00,247.21,63.19,-54.51,26.48,1546.73,-0.45,76.82,179.92
16849,0.00,0.00,-1.00,-0.06,-0.12,0.06,247.21,63.19,-54.51,26.47,1549.45,-0.44,76.57,179.94
16873,0.00,0.00,-1.00,-0.06,0.00,0.00,247.21,63.19,-54.51,26.49,1548.45,-0.42,76.35,179.94
16897,-0.00,0.00,-1.00,0.00,-0.06,0.18,247.21,63.19,-54.51,26.48,1549.21,-0.40,76.14,179.95
16923,0.00,0.00,-1.00,-0.06,0.00,0.06,255.09,71.08,-62.08,26.49,1547.83,-0.41,75.83,179.96
16947,0.00,0.00,-1.00,-0.12,-0.06,0.12,255.09,71.08,-62.08,26.48,1547.49,-0.42,75.56,179.95
16972,0.00,0.00,-1.00,0.00,-0.06,0.00,255.09,71.08,-62.08,26.48,1548.47,-0.42,75.32,179.96
16996,0.00,0.00,-1.00,-0.06,-0.06,0.00,255.09,71.08,-62.08,26.50,1548.26,-0.41,75.10,179.95
17020,-0.00,0.00,-1.00,0.00,-0.06,0.12,255.09,71.08,-62.08,26.51,1547.31,-0.39,74.89,179.97
17044,0.00,0.00,-1.00,0.00,-0.06,0.18,255.09,71.08,-62.08,26.49,1547.31,-0.39,74.70,179.98
17070,0.00,-0.00,-1.00,-0.06,0.00,0.12,262.96,66.34,-51.48,26.48,1546.97,-0.34,74.61,179.99
17094,-0.00,0.00,-1.00,-0.12,0.00,0.12,262.96,66.34,-51.48,26.48,1547.34,-0.30,74.54,179.97
17118,-0.00,0.00,-1.00,-0.06,-0.06,0.12,262.96,66.34,-51.48,26.49,1548.35,-0.27,74.47,179.97
17142,0.00,0.00,-1.00,-0.06,-0.06,0.12,262.96,66.34,-51.48,26.47,1548.75,-0.26,74.41,179.96
17166,0.00,0.00,-1.01,-0.06,-0.06,0.12,262.96,66.34,-51.48,26.48,1546.58,-0.24,74.35,179.95
17192,0.00,0.00,-1.00,-0.06,-0.06,0.00,256.66,53.71,-54.51,26.47,1547.25,-0.19,74.46,179.94
17217,0.00,0.00,-1.00,-0.12,-0.12,0.06,256.66,53.71,-54.51,26.50,1549.30,-0.15,74.55,179.93
17241,0.00,0.00,-1.00,-0.12,-0.06,0.12,256.66,53.71,-54.51,26.47,1547.22,-0.11,74.63,179.93
17265,-0.00,0.00,-1.00,-0.06,0.00,0.00,256.66,53.71,-54.51,26.48,1545.99,-0.08,74.72,179.92
17289,-0.00,0.00,-1.00,-0.06,-0.06,0.24,256.66,53.71,-54.51,26.48,1548.10,-0.05,74.79,179.90
17313,0.00,0.00,-1.00,-0.18,-0.18,0.06,262.96,63.19,-63.60,26.50,1546.18,-0.04,74.75,179.89
17343,0.00,0.00,-1.00,-0.06,-0.06,0.06,262.96,63.19,-63.60,26.48,1548.75,-0.06,74.70,179.89
17368,-0.00,0.00,-1.00,0.00,-0.06,0.12,262.96,63.19,-63.60,26.46,1546.95,-0.04,74.66,179.89
17392,0.00,0.00,-1.00,-0.06,-0.06,0.12,262.96,63.19,-63.60,26.49,1547.65,-0.06,74.63,179.89
17416,0.00,0.00,-1.01,-0.06,-0.06,0.18,266.11,60.03,-51.48,26.48,1546.67,-0.04,74.65,179.90
17440,0.00,0.00,-1.00,-0.06,-0.12,0.06,266.11,60.03,-51.48,26.49,1548.93,-0.04,74.68,179.90
17466,0.00,0.00,-1.00,-0.12,-0.06,0.00,266.11,60.03,-51.48,26.49,1547.83,-0.03,74.70,179.88
17490,0.00,0.00,-1.00,-0.12,-0.12,0.12,266.11,60.03,-51.48,26.49,1547.98,-0.02,74.72,179.88
17514,-0.00,0.00,-1.01,-0.06,-0.06,0.18,266.11,60.03,-51.48,26.50,1549.12,0.01,74.73,179.88
17539,0.00,0.00,-1.00,-0.12,-0.06,0.00,264.53,61.61,-62.08,26.49,1545.99,-0.01,74.72,179.87
17563,-0.00,0.00,-1.00,-0.06,-0.12,0.18,264.53,61.61,-62.08,26.49,1547.06,0.00,74.71,179.88
17587,-0.00,-0.00,-1.00,-0.12,-0.06,0.00,264.53,61.61,-62.08,26.48,1549.63,0.01,74.71,179.90
17613,-0.00,0.00,-1.00,-0.06,-0.06,0.12,264.53,61.61,-62.08,26.48,1546.60,0.01,74.69,179.91
17637,0.00,0.00,-1.00,0.00,-0.06,0.06,264.53,61.61,-62.08,26.48,1547.00,-0.00,74.69,179.91
17661,0.00,-0.00,-1.00,0.00,0.00,0.06,264.53,61.61,-62.08,26.48,1547.37,-0.02,74.68,179.93
17685,0.00,0.00,-1.00,-0.06,-0.06,-0.06,259.81,50.55,-60.57,26.51,1549.26,0.01,74.81,179.91
17709,-0.00,0.00,-1.00,-0.06,0.00,0.12,259.81,50.55,-60.57,26.48,1547.82,0.05,74.92,179.90
17735,0.00,0.00,-1.00,-0.06,-0.06,-0.06,259.81,50.55,-60.57,26.50,1548.99,0.05,75.03,179.89
17759,-0.00,0.00,-1.00,0.00,-0.06,0.00,259.81,50.55,-60.57,26.48,1549.81,0.07,75.14,179.89
17783,0.00,0.00,-1.00,-0.06,0.00,0.12,259.81,50.55,-60.57,26.49,1547.98,0.08,75.23,179.88
17815,0.00,0.00,-1.00,-0.24,-0.06,0.12,258.23,61.61,-62.08,26.49,1548.32,0.03,75.14,179.88
17853,0.00,0.00,-1.00,-0.06,0.06,0.18,258.23,61.61,-62.08,26.45,1549.60,0.00,75.04,179.88
17877,-0.00,0.00,-1.00,-0.12,-0.12,0.06,258.23,61.61,-62.08,26.47,1549.33,0.01,74.99,179.86
17903,0.00,0.00,-1.00,0.00,-0.06,0.06,258.23,61.61,-62.08,26.47,1547.49,-0.00,74.94,179.88
17927,0.00,0.00,-1.00,0.00,-0.12,0.00,264.53,61.61,-59.06,26.50,1549.91,-0.02,74.92,179.89
17951,-0.00,0.00,-1.00,-0.12,-0.06,0.06,264.53,61.61,-59.06,26.48,1548.93,-0.00,74.90,179.89
17976,-0.00,0.00,-1.00,-0.06,-0.06,0.18,264.53,61.61,-59.06,26.47,1546.54,0.00,74.87,179.90
18000,-0.00,-0.00,-1.00,-0.12,-0.06,0.06,264.53,61.61,-59.06,26.48,1548.17,0.01,74.85,179.92
18026,-0.00,0.00,-1.01,-0.06,-0.12,0.06,264.53,61.61,-59.06,26.48,1545.72,0.01,74.84,179.91
18050,0.00,0.00,-1.00,-0.12,-0.12,0.12,264.53,77.40,-65.11,26.48,1545.81,-0.06,74.58,179.92
18074,0.00,0.00,-1.00,0.00,-0.12,0.06,264.53,77.40,-65.11,26.49,1550.89,-0.10,74.34,179.93
18098,0.00,0.00,-1.00,-0.12,-0.06,0.18,264.53,77.40,-65.11,26.48,1551.59,-0.15,74.13,179.93
18122,-0.00,-0.00,-1.00,-0.12,-0.12,0.06,264.53,77.40,-65.11,26.48,1546.76,-0.16,73.93,179.95
18147,-0.00,0.00,-1.00,-0.06,0.00,0.12,264.53,77.40,-65.11,26.49,1546.02,-0.17,73.75,179.95
18173,-0.00,0.00,-1.00,-0.06,0.00,0.06,259.81,82.14,-48.46,26.48,1545.81,-0.19,73.44,179.94
18197,0.00,0.00,-1.00,0.00,0.00,0.06,259.81,82.14,-48.46,26.48,1548.65,-0.21,73.17,179.92
18221,0.00,0.00,-1.00,-0.06,-0.06,0.00,259.81,82.14,-48.46,26.47,1548.59,-0.23,72.94,179.93
18245,0.00,0.00,-1.00,-0.06,0.00,0.12,259.81,82.14,-48.46,26.50,1545.56,-0.24,72.72,179.94
18269,0.00,0.00,-1.00,-0.06,-0.06,0.12,259.81,82.14,-48.46,26.48,1549.87,-0.24,72.52,179.93
18295,-0.00,0.00,-1.00,-0.06,-0.06,0.00,267.68,71.08,-68.14,26.47,1546.21,-0.19,72.54,179.92
18319,-0.00,0.00,-1.00,0.00,-0.06,0.00,267.68,71.08,-68.14,26.50,1547.82,-0.14,72.57,179.90
18343,0.00,0.00,-1.00,-0.06,-0.18,0.06,267.68,71.08,-68.14,26.49,1545.16,-0.13,72.58,179.91
18367,0.00,0.00,-1.00,-0.06,-0.06,0.06,267.68,71.08,-68.14,26.50,1547.09,-0.13,72.60,179.91
18392,-0.00,0.00,-1.00,-0.06,-0.12,0.06,267.68,71.08,-68.14,26.49,1545.07,-0.09,72.62,179.90
18416,0.00,0.00,-1.00,-0.06,-0.12,0.06,264.53,64.76,-71.17,26.50,1547.52,-0.06,72.70,179.90
18446,0.00,0.00,-1.00,-0.06,-0.06,0.06,264.53,64.76,-71.17,26.51,1547.89,-0.03,72.80,179.88
18470,0.00,0.00,-1.00,0.00,-0.12,0.06,264.53,64.76,-71.17,26.49,1550.46,-0.02,72.87,179.87
18494,-0.00,-0.00,-1.00,-0.12,0.00,0.00,264.53,64.76,-71.17,26.48,1548.41,0.01,72.94,179.89
18518,0.00,0.00,-1.00,0.00,-0.06,0.06,264.53,64.76,-71.17,26.48,1546.14,0.00,73.00,179.90
18543,0.00,0.00,-1.00,-0.06,-0.06,0.12,262.96,63.19,-54.51,26.49,1545.65,0.02,73.08,179.89
18569,-0.00,0.00,-1.00,0.00,-0.06,0.06,262.96,63.19,-54.51,26.48,1548.38,0.04,73.16,179.89
18593,0.00,0.00,-1.00,0.00,-0.06,0.06,262.96,63.19,-54.51,26.47,1546.57,0.04,73.22,179.89
18617,0.00,0.00,-1.01,-0.06,-0.12,0.12,262.96,63.19,-54.51,26.50,1547.49,0.04,73.29,179.90
18641,0.00,0.00,-1.00,-0.06,0.00,0.12,262.96,63.19,-54.51,26.49,1548.95,0.04,73.34,179.89
18665,0.00,0.00,-1.00,-0.06,-0.12,-0.06,266.11,69.50,-57.54,26.51,1547.33,0.04,73.33,179.89
18689,-0.00,0.00,-1.00,-0.06,-0.06,0.00,266.11,69.50,-57.54,26.51,1549.26,0.04,73.31,179.89
18715,-0.00,0.00,-1.01,0.00,-0.12,0.12,266.11,69.50,-57.54,26.51,1548.68,0.04,73.29,179.89
18739,0.00,0.00,-1.01,0.00,-0.06,0.18,266.11,69.50,-57.54,26.49,1546.51,0.03,73.27,179.89
18763,-0.00,0.00,-1.00,0.06,-0.06,0.00,266.11,69.50,-57.54,26.48,1549.72,0.04,73.25,179.91
18788,-0.00,0.00,-1.00,0.00,0.00,0.18,242.49,58.45,-62.08,26.49,1548.43,0.05,73.31,179.90
18812,0.00,0.00,-1.00,0.00,-0.06,-0.12,242.49,58.45,-62.08,26.50,1546.51,0.06,73.36,179.91
18836,0.00,0.00,-1.00,0.00,-0.12,0.06,242.49,58.45,-62.08,26.50,1550.09,0.06,73.41,179.91
18862,-0.00,0.00,-1.00,-0.06,-0.12,0.06,242.49,58.45,-62.08,26.50,1547.95,0.07,73.46,179.91
18886,0.00,0.00,-1.00,0.00,-0.06,0.06,242.49,58.45,-62.08,26.51,1548.04,0.08,73.50,179.90
18910,0.00,0.00,-1.00,0.00,0.00,0.12,253.51,69.50,-60.57,26.50,1547.52,0.04,73.42,179.91
18934,0.00,0.00,-1.00,0.00,-0.06,0.12,253.51,69.50,-60.57,26.49,1549.90,0.01,73.34,179.91
18958,0.00,0.00,-1.00,-0.06,-0.12,0.12,253.51,69.50,-60.57,26.48,1546.91,-0.00,73.27,179.91
18984,0.00,0.00,-1.00,-0.06,0.00,0.18,253.51,69.50,-60.57,26.50,1548.28,-0.02,73.20,179.91
19008,0.00,0.00,-1.00,-0.06,-0.12,0.00,253.51,69.50,-60.57,26.48,1548.62,-0.04,73.15,179.89
19032,0.00,0.00,-1.00,-0.12,0.00,0.24,262.96,72.66,-48.46,26.49,1546.32,-0.04,73.08,179.88
19056,-0.00,0.00,-1.00,-0.06,0.00,0.18,262.96,72.66,-48.46,26.49,1547.24,-0.04,73.01,179.88
19081,-0.00,0.00,-1.00,-0.06,-0.06,0.06,262.96,72.66,-48.46,26.49,1547.85,-0.04,72.96,179.87
19105,-0.00,0.00,-1.00,-0.06,-0.12,0.06,262.96,72.66,-48.46,26.52,1548.56,-0.03,72.91,179.87
19131,-0.00,0.00,-1.00,-0.12,-0.12,0.12,262.96,72.66,-48.46,26.51,1548.83,-0.03,72.85,179.86
19155,0.00,0.00,-1.00,0.00,-0.12,0.12,269.26,69.50,-48.46,26.52,1549.35,-0.02,72.88,179.86
19179,0.00,0.00,-1.00,-0.12,-0.12,0.06,269.26,69.50,-48.46,26.52,1547.64,-0.01,72.90,179.86
19203,0.00,0.00,-1.00,0.00,-0.06,0.06,269.26,69.50,-48.46,26.51,1550.63,-0.00,72.92,179.85
19227,0.00,0.00,-1.00,-0.12,-0.06,0.00,269.26,69.50,-48.46,26.50,1547.58,-0.00,72.95,179.86
19275,0.00,0.00,-1.00,0.00,-0.06,0.18,250.36,69.50,-66.63,26.50,1547.49,-0.02,72.84,179.87
19299,0.00,0.00,-1.00,-0.06,0.00,0.12,250.36,69.50,-66.63,26.50,1547.40,-0.04,72.79,179.86
19323,0.00,0.00,-1.00,0.00,-0.06,0.06,250.36,69.50,-66.63,26.51,1548.16,-0.05,72.75,179.86
19347,0.00,0.00,-1.00,0.00,-0.12,0.00,250.36,69.50,-66.63,26.49,1548.59,-0.05,72.72,179.86
19371,0.00,0.00,-1.01,-0.12,0.00,0.00,250.36,69.50,-66.63,26.48,1550.63,-0.06,72.68,179.87
19396,0.00,0.00,-1.00,-0.06,-0.06,0.12,255.09,52.13,-56.03,26.48,1547.76,-0.02,72.89,179.87
19421,0.00,0.00,-1.00,0.06,-0.18,0.00,255.09,52.13,-56.03,26.49,1548.01,0.04,73.10,179.86
19445,-0.00,0.00,-1.01,-0.12,-0.06,0.12,255.09,52.13,-56.03,26.50,1546.23,0.08,73.28,179.86
19470,0.00,0.00,-1.00,-0.06,-0.06,0.06,255.09,52.13,-56.03,26.48,1549.08,0.10,73.46,179.84
19494,0.00,0.00,-1.00,-0.06,-0.12,-0.06,255.09,52.13,-56.03,26.49,1548.28,0.11,73.62,179.83
19518,0.00,0.00,-1.00,0.00,0.00,0.18,251.94,67.92,-65.11,26.49,1546.26,0.06,73.55,179.86
19548,-0.00,0.00,-1.00,-0.12,-0.12,-0.06,251.94,67.92,-65.11,26.49,1546.91,0.05,73.47,179.84
19572,-0.00,0.00,-1.00,-0.06,0.00,0.06,251.94,67.92,-65.11,26.50,1547.36,0.03,73.41,179.83
19597,0.00,0.00,-1.00,0.00,-0.12,0.06,251.94,67.92,-65.11,26.51,1549.23,0.00,73.35,179.84
19621,-0.00,0.00,-1.00,-0.06,-0.12,0.06,251.94,67.92,-65.11,26.50,1547.89,0.01,73.30,179.84
19645,0.00,0.00,-1.00,-0.06,-0.06,0.12,259.81,66.34,-63.60,26.50,1548.71,-0.00,73.31,179.85
19669,0.00,0.00,-1.00,-0.06,-0.12,0.00,259.81,66.34,-63.60,26.51,1549.78,-0.01,73.31,179.84
19695,0.00,0.00,-1.00,-0.12,-0.06,0.00,259.81,66.34,-63.60,26.51,1547.73,-0.00,73.32,179.84
19719,0.00,0.00,-1.00,0.00,-0.06,0.06,259.81,66.34,-63.60,26.50,1544.43,-0.00,73.32,179.85
19743,0.00,0.00,-1.01,0.06,-0.06,0.06,259.81,66.34,-63.60,26.49,1549.13,-0.01,73.32,179.85
19768,-0.00,0.00,-1.00,-0.06,-0.12,0.06,261.38,64.76,-65.11,26.49,1550.76,0.01,73.35,179.84
19792,0.00,0.00,-1.00,-0.12,-0.12,0.06,261.38,64.76,-65.11,26.52,1548.06,0.02,73.38,179.84
19818,0.00,0.00,-1.00,0.00,-0.06,0.06,261.38,64.76,-65.11,26.50,1547.21,0.02,73.41,179.85
19842,0.00,0.00,-1.00,-0.06,-0.06,0.06,261.38,64.76,-65.11,26.50,1548.98,0.02,73.43,179.86
19866,0.00,0.00,-1.00,-0.06,-0.12,0.06,261.38,64.76,-65.11,26.48,1548.80,0.02,73.45,179.87
19890,0.00,0.00,-1.00,0.00,-0.06,0.00,264.53,80.56,-62.08,26.50,1547.54,-0.03,73.25,179.88
19914,0.00,0.00,-1.00,-0.06,-0.06,0.00,264.53,80.56,-62.08,26.50,1547.91,-0.08,73.07,179.90
19938,-0.00,0.00,-1.00,-0.06,-0.12,0.18,264.53,80.56,-62.08,26.49,1547.76,-0.09,72.89,179.91
19964,0.00,0.00,-1.00,0.06,0.00,0.12,264.53,80.56,-62.08,26.51,1549.26,-0.13,72.73,179.93
19988,-0.00,0.00,-1.00,0.00,0.00,0.18,264.53,80.56,-62.08,26.50,1549.32,-0.13,72.58,179.92
20012,0.00,0.00,-1.00,-0.06,-0.06,0.00,256.66,60.03,-63.60,26.49,1547.82,-0.09,72.70,179.90
20037,0.00,0.00,-1.00,-0.06,-0.06,0.06,256.66,60.03,-63.60,26.49,1547.82,-0.06,72.82,179.90
20061,0.00,0.00,-1.00,-0.06,-0.12,0.06,256.66,60.03,-63.60,26.50,1546.81,-0.04,72.93,179.90
20085,0.00,0.00,-1.00,0.00,0.00,0.12,256.66,60.03,-63.60,26.50,1547.57,-0.02,73.03,179.90
20111,0.00,-0.00,-1.00,0.00,-0.12,0.06,256.66,60.03,-63.60,26.52,1547.11,0.01,73.13,179.91
20135,-0.00,0.00,-1.00,-0.12,0.00,-0.06,256.66,66.34,-51.48,26.49,1547.48,0.03,73.13,179.92
20159,0.00,0.00,-1.00,-0.06,-0.12,0.18,256.66,66.34,-51.48,26.51,1547.63,0.03,73.14,179.92
20183,0.00,0.00,-1.00,-0.12,-0.06,0.00,256.66,66.34,-51.48,26.50,1546.93,0.02,73.14,179.92
20207,-0.00,0.00,-1.00,-0.06,-0.06,0.06,256.66,66.34,-51.48,26.49,1547.30,0.02,73.15,179.91
20233,-0.00,0.00,-1.00,0.00,0.00,0.06,256.66,66.34,-51.48,26.50,1548.49,0.04,73.15,179.90
20257,0.00,0.00,-1.00,-0.12,-0.12,0.12,270.83,67.92,-56.03,26.52,1549.74,0.03,73.18,179.91
20281,0.00,0.00,-1.00,0.00,-0.06,0.18,270.83,67.92,-56.03,26.52,1547.02,0.03,73.21,179.90
20306,-0.00,0.00,-1.00,-0.12,0.00,0.06,270.83,67.92,-56.03,26.51,1545.46,0.04,73.23,179.91
20330,-0.00,0.00,-1.00,-0.06,-0.12,0.12,270.83,67.92,-56.03,26.51,1547.63,0.05,73.26,179.91
20354,0.00,0.00,-1.00,0.00,0.00,0.00,270.83,67.92,-56.03,26.49,1545.92,0.05,73.28,179.91
20380,0.00,0.00,-1.00,0.00,-0.06,0.12,261.38,61.61,-59.06,26.51,1547.73,0.06,73.36,179.90
20404,0.00,0.00,-1.00,-0.06,-0.06,0.06,261.38,61.61,-59.06,26.51,1546.96,0.06,73.43,179.88
20428,0.00,0.00,-1.00,0.00,-0.06,0.06,261.38,61.61,-59.06,26.51,1547.67,0.07,73.49,179.86
20452,-0.00,0.00,-1.00,-0.12,0.00,0.00,261.38,61.61,-59.06,26.51,1547.15,0.08,73.55,179.87
20476,0.00,0.00,-1.00,-0.06,0.00,0.06,261.38,61.61,-59.06,26.51,1548.22,0.08,73.61,179.87
20502,-0.00,0.00,-1.01,-0.06,-0.06,0.06,266.11,60.03,-48.46,26.53,1550.20,0.09,73.71,179.88
20526,0.00,0.00,-1.00,-0.12,-0.06,0.06,266.11,60.03,-48.46,26.51,1547.69,0.09,73.79,179.87
20550,-0.00,0.00,-1.00,-0.18,-0.06,0.06,266.11,60.03,-48.46,26.53,1547.78,0.09,73.87,179.87
20574,0.00,0.00,-1.00,-0.06,-0.12,0.12,266.11,60.03,-48.46,26.50,1546.38,0.09,73.94,179.86
20599,0.00,0.00,-1.01,-0.06,-0.06,0.00,266.11,60.03,-48.46,26.50,1545.71,0.08,74.01,179.84
20623,0.00,0.00,-1.01,-0.12,0.00,0.12,266.11,60.03,-48.46,26.50,1546.32,0.07,74.07,179.84
20653,0.00,0.00,-1.00,0.06,-0.06,0.12,275.55,75.82,-57.54,26.51,1548.24,0.00,73.91,179.85
20685,0.00,0.00,-1.00,-0.06,-0.12,0.12,275.55,75.82,-57.54,26.50,1547.61,-0.05,73.75,179.84
20723,0.00,0.00,-1.00,-0.12,-0.12,0.12,275.55,75.82,-57.54,26.51,1546.66,-0.08,73.59,179.86
20747,0.00,0.00,-1.00,0.00,-0.06,0.12,275.55,75.82,-57.54,26.51,1547.58,-0.08,73.50,179.88
20771,0.00,0.00,-1.00,0.00,-0.06,0.06,255.09,67.92,-62.08,26.52,1549.38,-0.09,73.45,179.87
20805,-0.00,0.00,-1.00,-0.06,-0.06,0.18,255.09,67.92,-62.08,26.51,1547.30,-0.08,73.38,179.87
20830,0.00,0.00,-1.00,-0.18,-0.06,0.12,255.09,67.92,-62.08,26.49,1548.06,-0.09,73.34,179.86
20854,0.00,0.00,-1.00,0.00,-0.06,-0.06,255.09,67.92,-62.08,26.49,1547.88,-0.09,73.31,179.87
20878,0.00,0.00,-1.00,-0.06,0.00,0.12,253.51,63.19,-57.54,26.50,1547.36,-0.08,73.33,179.86
20902,0.00,0.00,-1.00,-0.06,0.00,0.18,253.51,63.19,-57.54,26.49,1549.11,-0.08,73.36,179.87
20926,0.00,0.00,-1.00,-0.06,-0.06,0.06,253.51,63.19,-57.54,26.51,1547.88,-0.06,73.38,179.87
20952,0.00,0.00,-1.00,0.00,-0.06,0.12,253.51,63.19,-57.54,26.52,1550.57,-0.05,73.40,179.88
20976,-0.00,0.00,-1.00,-0.06,-0.06,-0.06,253.51,63.19,-57.54,26.50,1548.34,-0.04,73.42,179.88
21001,-0.00,0.00,-1.00,-0.06,-0.06,0.12,264.53,74.24,-71.17,26.51,1548.13,-0.05,73.33,179.90
21025,0.00,0.00,-1.01,-0.06,-0.06,0.06,264.53,74.24,-71.17,26.52,1546.90,-0.08,73.24,179.90
21049,0.00,0.00,-1.01,-0.06,-0.06,0.00,264.53,74.24,-71.17,26.51,1547.97,-0.10,73.16,179.91
21075,0.00,0.00,-1.00,-0.06,-0.06,0.12,264.53,74.24,-71.17,26.50,1547.85,-0.11,73.07,179.91
21099,-0.00,0.00,-1.00,0.00,-0.06,0.18,264.53,74.24,-71.17,26.50,1547.45,-0.11,73.00,179.91
21123,0.00,0.00,-1.00,-0.06,0.00,0.00,262.96,63.19,-60.57,26.48,1546.71,-0.09,73.08,179.89
21147,0.00,0.00,-1.00,0.00,-0.06,0.00,262.96,63.19,-60.57,26.48,1546.71,-0.07,73.16,179.88
21171,0.00,0.00,-1.00,0.00,-0.06,0.00,262.96,63.19,-60.57,26.49,1548.15,-0.04,73.22,179.89
21195,0.00,0.00,-1.00,-0.06,-0.06,0.12,262.96,63.19,-60.57,26.51,1544.54,-0.03,73.29,179.87
21221,0.00,0.00,-1.00,0.06,0.00,0.06,262.96,63.19,-60.57,26.54,1548.73,-0.02,73.35,179.87
21246,0.00,0.00,-1.00,-0.06,-0.12,0.12,261.38,74.24,-62.08,26.51,1547.24,-0.04,73.24,179.89
21270,0.00,0.00,-1.00,-0.06,-0.12,0.00,261.38,74.24,-62.08,26.53,1545.40,-0.05,73.14,179.89
21294,0.00,0.00,-1.00,-0.06,-0.12,0.06,261.38,74.24,-62.08,26.53,1547.02,-0.07,73.05,179.91
21318,-0.00,0.00,-1.00,-0.06,-0.06,0.06,261.38,74.24,-62.08,26.51,1547.33,-0.06,72.96,179.92
21344,0.00,0.00,-1.00,-0.06,-0.12,0.00,261.38,74.24,-62.08,26.51,1549.44,-0.07,72.88,179.92
21368,-0.00,0.00,-1.00,-0.12,-0.06,0.00,262.96,72.66,-66.63,26.51,1545.62,-0.07,72.84,179.93
21392,-0.00,0.00,-1.00,0.00,0.00,0.18,262.96,72.66,-66.63,26.51,1548.83,-0.06,72.80,179.92
21416,0.00,0.00,-1.00,0.00,-0.06,0.12,262.96,72.66,-66.63,26.51,1547.14,-0.06,72.76,179.90
21440,0.00,0.00,-1.00,0.00,-0.06,0.00,262.96,72.66,-66.63,26.50,1546.37,-0.08,72.73,179.90
21464,-0.00,-0.00,-1.00,0.00,0.00,0.12,262.96,72.66,-66.63,26.52,1548.58,-0.07,72.70,179.92
21490,-0.00,0.00,-1.00,-0.06,-0.06,0.06,266.11,63.19,-51.48,26.50,1549.37,-0.03,72.81,179.90
21515,-0.00,0.00,-1.00,-0.06,-0.06,0.12,266.11,63.19,-51.48,26.51,1544.91,0.00,72.91,179.88
21539,0.00,0.00,-1.00,-0.06,0.00,0.06,266.11,63.19,-51.48,26.50,1547.54,0.00,73.01,179.89
21563,0.00,0.00,-1.00,-0.12,-0.06,0.18,266.11,63.19,-51.48,26.51,1544.82,0.01,73.09,179.89
21587,-0.00,0.00,-1.00,-0.06,-0.06,0.00,266.11,63.19,-51.48,26.49,1548.98,0.03,73.18,179.88
21613,0.00,0.00,-1.01,-0.06,0.00,0.06,251.94,67.92,-62.08,26.51,1547.26,0.02,73.13,179.88
21637,-0.00,0.00,-1.00,-0.06,-0.06,0.12,251.94,67.92,-62.08,26.51,1549.31,0.03,73.10,179.87
21661,-0.00,0.00,-1.00,-0.12,-0.12,0.06,251.94,67.92,-62.08,26.50,1544.69,0.03,73.06,179.88
21685,0.00,-0.00,-1.00,-0.06,-0.06,0.12,251.94,67.92,-62.08,26.51,1547.41,0.02,73.03,179.90
21710,-0.00,0.00,-1.00,-0.06,0.06,0.18,251.94,67.92,-62.08,26.52,1548.02,0.01,73.00,179.90
21734,0.00,0.00,-1.00,-0.06,-0.06,0.00,251.94,67.92,-62.08,26.53,1547.85,0.00,72.97,179.90
21764,-0.00,0.00,-1.00,-0.06,0.00,0.06,256.66,66.34,-57.54,26.53,1545.95,0.02,72.99,179.90
21788,0.00,0.00,-1.00,0.00,-0.12,0.00,256.66,66.34,-57.54,26.53,1548.06,0.02,73.01,179.89
21812,0.00,0.00,-1.00,-0.12,-0.12,0.00,256.66,66.34,-57.54,26.53,1547.29,0.02,73.02,179.90
21836,0.00,0.00,-1.00,-0.12,-0.06,0.06,256.66,66.34,-57.54,26.51,1547.81,0.01,73.03,179.91
21860,0.00,0.00,-1.00,-0.12,-0.12,0.06,256.66,56.87,-54.51,26.52,1547.96,0.04,73.17,179.90
21885,0.00,0.00,-1.00,-0.06,-0.06,0.12,256.66,56.87,-54.51,26.53,1548.39,0.05,73.30,179.89
21910,0.00,0.00,-1.00,0.00,-0.12,0.00,256.66,56.87,-54.51,26.50,1548.82,0.08,73.43,179.88
21934,0.00,0.00,-1.00,-0.06,-0.06,0.06,256.66,56.87,-54.51,26.52,1547.29,0.08,73.54,179.87
21959,-0.00,0.00,-1.00,-0.12,-0.06,0.12,256.66,56.87,-54.51,26.52,1547.11,0.11,73.64,179.88
21983,0.00,0.00,-1.00,-0.06,-0.12,0.00,264.53,74.24,-53.00,26.50,1548.92,0.07,73.52,179.89
22007,0.00,0.00,-1.00,0.06,-0.06,0.06,264.53,74.24,-53.00,26.51,1548.64,0.03,73.41,179.89
22033,0.00,0.00,-1.00,0.06,-0.12,0.18,264.53,74.24,-53.00,26.51,1548.18,0.01,73.30,179.90
22057,0.00,0.00,-1.00,0.00,-0.12,0.18,264.53,74.24,-53.00,26.53,1547.35,-0.01,73.20,179.92
22081,-0.00,0.00,-1.00,-0.06,-0.12,0.06,264.53,74.24,-53.00,26.51,1550.17,-0.01,73.11,179.92
22106,-0.00,0.00,-1.01,-0.12,-0.06,0.06,258.23,58.45,-56.03,26.51,1546.50,0.02,73.23,179.90
22130,0.00,0.00,-1.00,-0.12,-0.06,0.06,258.23,58.45,-56.03,26.52,1546.28,0.03,73.34,179.88
22169,0.00,0.00,-1.01,-0.06,-0.06,0.06,258.23,58.45,-56.03,26.53,1548.70,0.06,73.51,179.88
22196,-0.00,0.00,-1.00,-0.06,-0.06,0.00,258.23,58.45,-56.03,26.52,1546.04,0.07,73.61,179.87
22220,0.00,0.00,-1.00,-0.12,-0.12,0.12,258.23,58.45,-56.03,26.48,1548.92,0.08,73.69,179.88
22244,-0.00,0.00,-1.00,-0.06,-0.12,0.06,258.23,64.76,-56.03,26.52,1548.24,0.07,73.68,179.88
22268,-0.00,0.00,-1.00,0.00,-0.06,0.12,258.23,64.76,-56.03,26.51,1548.85,0.07,73.68,179.88
22292,0.00,0.00,-1.00,0.00,-0.06,0.12,258.23,64.76,-56.03,26.52,1549.10,0.06,73.67,179.90
22318,0.00,0.00,-1.00,-0.06,-0.06,0.12,258.23,64.76,-56.03,26.51,1550.11,0.06,73.66,179.91
22342,0.00,0.00,-1.00,0.00,-0.12,0.12,258.23,64.76,-56.03,26.51,1547.41,0.04,73.66,179.89
22366,-0.00,0.00,-1.00,0.00,-0.12,0.00,264.53,58.45,-68.14,26.51,1547.17,0.07,73.76,179.88
22390,0.00,0.00,-1.00,0.00,-0.06,0.00,264.53,58.45,-68.14,26.52,1545.58,0.08,73.85,179.88
22415,-0.00,0.00,-1.00,0.00,0.00,-0.06,264.53,58.45,-68.14,26.54,1549.19,0.10,73.93,179.88
22439,-0.00,0.00,-1.00,-0.06,-0.12,0.00,264.53,58.45,-68.14,26.51,1549.40,0.11,74.01,179.86
22464,-0.00,0.00,-1.01,0.00,-0.06,0.12,264.53,58.45,-68.14,26.52,1547.57,0.13,74.09,179.85
22489,-0.00,0.00,-1.00,0.00,-0.18,0.00,251.94,64.76,-59.06,26.51,1550.87,0.11,74.03,179.85
22513,0.00,0.00,-1.00,-0.06,0.00,0.12,251.94,64.76,-59.06,26.52,1548.82,0.06,73.98,179.86
22537,0.00,0.00,-1.00,-0.06,-0.12,0.06,251.94,64.76,-59.06,26.52,1548.15,0.03,73.93,179.86
22561,-0.00,0.00,-1.00,0.00,-0.18,0.06,251.94,64.76,-59.06,26.50,1549.49,0.03,73.88,179.86
22587,0.00,0.00,-1.00,-0.06,-0.06,0.00,251.94,64.76,-59.06,26.51,1549.09,0.02,73.84,179.87
22611,-0.00,0.00,-1.00,-0.06,-0.12,0.12,272.41,75.82,-54.51,26.51,1547.81,-0.00,73.71,179.89
22635,-0.00,0.00,-1.00,0.00,-0.06,0.12,272.41,75.82,-54.51,26.51,1548.94,-0.01,73.59,179.90
22659,-0.00,0.00,-1.00,-0.06,0.00,0.12,272.41,75.82,-54.51,26.54,1544.84,-0.00,73.49,179.91
22683,-0.00,0.00,-1.00,0.00,-0.06,0.06,272.41,75.82,-54.51,26.54,1547.96,-0.01,73.39,179.92
22708,-0.00,0.00,-1.00,-0.06,-0.06,0.06,272.41,75.82,-54.51,26.50,1549.61,-0.01,73.30,179.93
22734,-0.00,0.00,-1.00,0.00,-0.06,0.00,272.41,56.87,-60.57,26.51,1546.59,0.03,73.47,179.92
22758,0.00,0.00,-1.00,-0.06,-0.06,0.06,272.41,56.87,-60.57,26.50,1545.91,0.06,73.62,179.91
22782,-0.00,0.00,-1.00,0.06,0.00,0.12,272.41,56.87,-60.57,26.51,1548.55,0.09,73.76,179.90
22806,-0.00,0.00,-1.00,-0.06,-0.06,-0.06,272.41,56.87,-60.57,26.51,1545.73,0.12,73.89,179.90
22830,0.00,0.00,-1.00,0.00,-0.12,0.12,272.41,56.87,-60.57,26.54,1547.84,0.13,74.01,179.89
22860,-0.00,0.00,-1.00,0.00,-0.06,0.12,261.38,61.61,-46.94,26.52,1548.88,0.12,74.05,179.91
22885,-0.00,0.00,-1.00,-0.12,-0.06,0.06,261.38,61.61,-46.94,26.53,1551.39,0.12,74.07,179.90
22909,-0.00,0.00,-1.00,0.00,-0.12,0.06,261.38,61.61,-46.94,26.52,1549.61,0.11,74.09,179.88
22933,0.00,0.00,-1.00,-0.06,-0.12,0.12,261.38,61.61,-46.94,26.51,1546.04,0.09,74.12,179.89
22957,-0.00,0.00,-1.00,0.00,-0.06,0.06,261.38,61.61,-46.94,26.51,1547.63,0.09,74.14,179.88
22981,0.00,0.00,-1.01,0.00,-0.06,0.00,261.38,58.45,-56.03,26.51,1548.36,0.09,74.20,179.90
23007,0.00,0.00,-1.01,0.00,-0.18,0.00,261.38,58.45,-56.03,26.54,1549.65,0.09,74.26,179.89
23031,-0.00,0.00,-1.00,0.00,-0.06,0.12,261.38,58.45,-56.03,26.50,1547.60,0.10,74.31,179.90
23055,-0.00,0.00,-1.00,0.00,0.06,0.18,261.38,58.45,-56.03,26.52,1550.59,0.10,74.36,179.88
23079,0.00,-0.00,-1.00,0.06,0.00,0.00,261.38,58.45,-56.03,26.52,1550.44,0.09,74.41,179.90
23104,0.00,0.00,-1.00,-0.12,-0.06,0.18,255.09,58.45,-56.03,26.54,1548.30,0.07,74.43,179.89
23128,0.00,0.00,-1.00,-0.06,-0.06,0.18,255.09,58.45,-56.03,26.53,1547.20,0.07,74.45,179.88
23153,0.00,0.00,-1.00,0.00,-0.06,0.06,255.09,58.45,-56.03,26.52,1545.55,0.06,74.47,179.89
23178,0.00,0.00,-1.00,0.00,-0.06,0.06,255.09,58.45,-56.03,26.51,1548.64,0.05,74.49,179.90
23202,0.00,0.00,-1.00,0.00,-0.06,0.06,255.09,58.45,-56.03,26.52,1545.79,0.04,74.51,179.89
23226,0.00,0.00,-1.00,0.00,-0.12,0.06,266.11,69.50,-48.46,26.54,1550.68,0.01,74.40,179.89
23250,-0.00,0.00,-1.00,-0.06,-0.12,0.12,266.11,69.50,-48.46,26.54,1546.86,-0.00,74.30,179.88
23276,0.00,0.00,-1.00,-0.12,-0.06,0.06,266.11,69.50,-48.46,26.52,1548.20,-0.03,74.20,179.88
23300,-0.00,0.00,-1.00,0.00,0.12,0.00,266.11,69.50,-48.46,26.53,1546.86,-0.04,74.12,179.87
23324,0.00,0.00,-1.00,-0.12,-0.12,0.12,266.11,69.50,-48.46,26.51,1549.12,-0.05,74.05,179.88
23349,-0.00,0.00,-1.00,-0.06,-0.06,0.12,262.96,56.87,-48.46,26.50,1550.10,-0.02,74.14,179.87
23373,0.00,0.00,-1.00,-0.12,-0.06,0.12,262.96,56.87,-48.46,26.52,1547.87,-0.00,74.23,179.87
23397,0.00,-0.00,-1.01,0.00,-0.12,0.06,262.96,56.87,-48.46,26.51,1547.90,0.02,74.31,179.89
23423,-0.00,0.00,-1.00,-0.06,-0.12,0.06,262.96,56.87,-48.46,26.51,1548.51,0.04,74.39,179.87
23447,0.00,0.00,-1.00,0.06,-0.12,0.12,262.96,56.87,-48.46,26.52,1548.05,0.05,74.46,179.88
23471,-0.00,0.00,-1.00,-0.06,0.00,0.06,264.53,55.29,-68.14,26.52,1547.07,0.07,74.55,179.88
23495,0.00,0.00,-1.00,0.00,0.00,0.12,264.53,55.29,-68.14,26.54,1549.43,0.06,74.63,179.88
23519,0.00,0.00,-1.00,-0.06,-0.12,0.06,264.53,55.29,-68.14,26.53,1548.45,0.06,74.70,179.87
23545,0.00,0.00,-1.00,-0.06,-0.12,0.06,264.53,55.29,-68.14,26.52,1547.20,0.08,74.78,179.87
23578,-0.00,0.00,-1.00,-0.06,-0.06,0.06,264.53,55.29,-68.14,26.53,1548.85,0.09,74.87,179.87
23610,0.00,0.00,-1.00,-0.06,-0.06,0.12,256.66,66.34,-63.60,26.53,1549.89,0.02,74.71,179.89
23634,0.00,0.00,-1.00,-0.06,-0.06,-0.06,256.66,66.34,-63.60,26.54,1550.20,-0.01,74.61,179.89
23658,0.00,0.00,-1.00,0.00,-0.06,0.00,256.66,66.34,-63.60,26.51,1550.87,-0.05,74.52,179.90
23682,0.00,0.00,-1.00,-0.12,-0.06,0.06,256.66,66.34,-63.60,26.52,1545.70,-0.07,74.43,179.91
23708,0.00,0.00,-1.00,-0.06,-0.06,0.06,256.66,66.34,-63.60,26.54,1546.92,-0.08,74.34,179.91
23732,-0.00,0.00,-1.00,-0.06,0.00,0.06,258.23,67.92,-49.97,26.52,1548.94,-0.08,74.24,179.93
23756,0.00,-0.00,-1.00,-0.06,-0.12,0.00,258.23,67.92,-49.97,26.53,1548.64,-0.09,74.15,179.94
23780,0.00,0.00,-1.00,-0.12,-0.12,0.06,258.23,67.92,-49.97,26.52,1548.11,-0.09,74.07,179.93
23805,0.00,0.00,-1.01,-0.06,-0.06,0.12,258.23,67.92,-49.97,26.53,1548.33,-0.09,73.99,179.94
23830,-0.00,0.00,-1.00,0.06,-0.06,0.06,258.23,67.92,-49.97,26.51,1546.22,-0.07,73.91,179.94
23855,0.00,0.00,-1.00,-0.12,0.00,0.06,261.38,71.08,-56.03,26.53,1547.84,-0.09,73.81,179.94
23879,-0.00,0.00,-1.00,0.00,-0.06,0.00,261.38,71.08,-56.03,26.52,1548.09,-0.09,73.71,179.93
23903,0.00,-0.00,-1.00,0.00,-0.06,0.06,261.38,71.08,-56.03,26.51,1549.70,-0.10,73.63,179.95
23927,0.00,0.00,-1.00,0.00,-0.06,0.00,261.38,71.08,-56.03,26.53,1548.88,-0.11,73.55,179.96
23951,0.00,-0.00,-1.00,-0.12,-0.06,0.06,261.38,71.08,-56.03,26.52,1547.22,-0.10,73.47,179.97
23981,0.00,0.00,-1.00,-0.06,-0.06,0.18,262.96,53.71,-66.63,26.51,1545.98,-0.05,73.67,179.95
24005,-0.00,-0.00,-1.00,-0.12,-0.18,0.06,262.96,53.71,-66.63,26.53,1547.13,0.01,73.82,179.95
24029,0.00,0.00,-1.00,-0.06,-0.06,0.06,262.96,53.71,-66.63,26.53,1548.14,0.04,73.96,179.93
24054,-0.00,0.00,-1.00,0.00,-0.12,0.12,262.96,53.71,-66.63,26.52,1548.36,0.07,74.08,179.93
24078,-0.00,0.00,-1.00,-0.06,-0.12,0.00,262.96,53.71,-66.63,26.51,1549.00,0.10,74.21,179.92
24104,-0.00,0.00,-1.00,-0.12,-0.06,0.12,261.38,64.76,-56.03,26.52,1548.48,0.09,74.17,179.91
24128,-0.00,0.00,-1.00,-0.06,-0.06,0.12,261.38,64.76,-56.03,26.54,1545.42,0.07,74.14,179.92
24152,0.00,0.00,-1.00,0.00,-0.12,0.00,261.38,64.76,-56.03,26.52,1548.69,0.05,74.12,179.91
24176,0.00,0.00,-1.00,0.00,-0.06,0.06,261.38,64.76,-56.03,26.53,1548.88,0.04,74.10,179.92
24200,0.00,0.00,-1.00,-0.06,-0.06,0.00,261.38,64.76,-56.03,26.52,1547.96,0.03,74.07,179.90
24224,-0.00,0.00,-1.00,-0.06,-0.06,0.12,258.23,71.08,-56.03,26.53,1546.98,0.00,73.94,179.91
24250,0.00,0.00,-1.00,-0.06,-0.06,0.06,258.23,71.08,-56.03,26.54,1547.13,-0.03,73.82,179.92
24274,0.00,0.00,-1.00,0.00,-0.12,0.06,258.23,71.08,-56.03,26.51,1550.77,-0.04,73.71,179.93
24298,-0.00,0.00,-1.00,-0.06,-0.06,0.12,258.23,71.08,-56.03,26.53,1548.75,-0.05,73.61,179.92
24323,0.00,0.00,-1.00,-0.06,-0.06,0.00,258.23,71.08,-56.03,26.52,1546.89,-0.07,73.52,179.94
24347,0.00,0.00,-1.00,-0.06,-0.12,0.12,256.66,66.34,-63.60,26.53,1549.77,-0.08,73.49,179.94
24373,-0.00,0.00,-1.00,0.00,0.00,0.12,256.66,66.34,-63.60,26.52,1548.94,-0.07,73.47,179.95
24397,0.00,0.00,-1.00,-0.12,-0.06,0.06,256.66,66.34,-63.60,26.53,1548.17,-0.06,73.46,179.93
24421,0.00,0.00,-1.00,0.00,-0.12,0.12,256.66,66.34,-63.60,26.53,1550.22,-0.07,73.44,179.93
24445,-0.00,0.00,-1.00,-0.06,0.00,0.18,256.66,66.34,-63.60,26.52,1546.95,-0.06,73.42,179.92
24469,0.00,0.00,-1.00,-0.06,-0.06,0.12,259.81,63.19,-51.48,26.51,1548.69,-0.05,73.46,179.91
24494,-0.00,0.00,-1.00,0.00,-0.12,0.06,259.81,63.19,-51.48,26.53,1548.35,-0.03,73.50,179.91
24519,0.00,0.00,-1.00,0.00,-0.06,0.00,259.81,63.19,-51.48,26.54,1547.62,-0.02,73.54,179.92
24543,-0.00,0.00,-1.00,-0.06,-0.06,0.00,259.81,63.19,-51.48,26.54,1547.35,0.01,73.57,179.90
24568,0.00,0.00,-1.00,-0.12,-0.06,0.06,259.81,63.19,-51.48,26.53,1547.38,0.00,73.61,179.89
24592,-0.00,0.00,-1.00,-0.12,0.00,-0.06,266.11,66.34,-51.48,26.52,1548.97,0.01,73.61,179.90
24616,0.00,0.00,-1.00,-0.06,-0.06,0.18,266.11,66.34,-51.48,26.53,1549.21,0.01,73.62,179.90
24640,0.00,0.00,-1.00,-0.06,0.00,0.12,266.11,66.34,-51.48,26.52,1549.61,0.01,73.62,179.90
24666,-0.00,0.00,-1.00,0.00,0.00,0.06,266.11,66.34,-51.48,26.52,1547.16,0.01,73.63,179.88
24690,0.00,0.00,-1.01,0.00,-0.06,0.06,266.11,66.34,-51.48,26.52,1545.76,0.01,73.63,179.88
24714,0.00,0.00,-1.00,-0.06,-0.06,0.00,261.38,71.08,-59.06,26.53,1546.70,-0.02,73.55,179.88
24738,-0.00,0.00,-1.01,0.00,-0.06,0.18,261.38,71.08,-59.06,26.54,1549.21,-0.02,73.47,179.89
24763,0.00,0.00,-1.00,-0.06,-0.12,0.12,261.38,71.08,-59.06,26.51,1547.04,-0.03,73.40,179.88
24788,0.00,0.00,-1.00,-0.06,0.00,0.00,261.38,71.08,-59.06,26.54,1547.65,-0.04,73.33,179.89
24812,0.00,0.00,-1.01,-0.06,-0.18,0.12,261.38,71.08,-59.06,26.53,1546.76,-0.04,73.27,179.90
24837,-0.00,0.00,-1.00,-0.06,-0.12,0.12,251.94,77.40,-56.03,26.56,1546.43,-0.07,73.07,179.91
24861,-0.00,0.00,-1.00,-0.12,-0.06,0.00,251.94,77.40,-56.03,26.54,1546.55,-0.09,72.89,179.92
24885,0.00,0.00,-1.00,-0.06,0.00,0.00,251.94,77.40,-56.03,26.53,1546.12,-0.12,72.72,179.91
24909,0.00,0.00,-1.00,-0.06,0.00,0.24,251.94,77.40,-56.03,26.56,1546.64,-0.13,72.56,179.91
24935,-0.00,0.00,-1.01,-0.06,-0.18,0.06,251.94,77.40,-56.03,26.51,1548.48,-0.13,72.40,179.91
24959,0.00,0.00,-1.00,0.00,0.00,0.06,256.66,63.19,-60.57,26.55,1547.83,-0.09,72.50,179.89
24983,0.00,0.00,-1.00,-0.06,-0.06,0.06,256.66,63.19,-60.57,26.56,1544.20,-0.06,72.59,179.87
25015,0.00,0.00,-1.00,-0.12,-0.12,0.06,256.66,63.19,-60.57,26.52,1547.50,-0.04,72.70,179.87
25053,0.00,0.00,-1.00,0.00,0.06,0.12,256.66,63.19,-60.57,26.52,1547.84,-0.00,72.81,179.88
25083,0.00,0.00,-1.00,0.00,-0.06,0.06,258.23,61.61,-46.94,26.53,1549.19,0.02,72.94,179.89
25107,0.00,0.00,-1.00,0.00,-0.12,0.06,258.23,61.61,-46.94,26.54,1548.18,0.04,73.03,179.88
25132,0.00,0.00,-1.00,0.06,-0.06,0.06,258.23,61.61,-46.94,26.55,1548.42,0.05,73.11,179.88
25156,-0.00,0.00,-1.00,-0.06,-0.06,0.06,258.23,61.61,-46.94,26.53,1546.65,0.06,73.19,179.88
25180,0.00,-0.00,-1.00,-0.06,-0.12,0.06,258.23,61.61,-46.94,26.52,1549.21,0.06,73.26,179.90
25204,0.00,0.00,-1.00,-0.06,-0.06,0.12,269.26,69.50,-48.46,26.54,1549.70,0.04,73.26,179.91
25238,-0.00,0.00,-1.00,0.00,-0.12,0.12,269.26,69.50,-48.46,26.53,1545.30,0.05,73.25,179.91
25262,-0.00,0.00,-1.00,-0.06,0.00,0.12,269.26,69.50,-48.46,26.53,1551.45,0.06,73.25,179.90
25286,-0.00,0.00,-1.00,-0.06,-0.06,0.00,269.26,69.50,-48.46,26.51,1548.81,0.06,73.25,179.89
25310,0.00,0.00,-1.00,-0.06,-0.12,0.12,269.26,69.50,-48.46,26.54,1550.38,0.05,73.24,179.89
25334,0.00,0.00,-1.00,-0.06,-0.06,0.06,259.81,72.66,-42.40,26.54,1548.94,0.03,73.15,179.89
25360,-0.00,0.00,-1.00,-0.06,-0.12,0.12,259.81,72.66,-42.40,26.54,1547.63,0.02,73.06,179.90
25384,0.00,0.00,-1.01,-0.06,-0.12,0.06,259.81,72.66,-42.40,26.50,1546.83,0.01,72.99,179.91
25408,-0.00,0.00,-1.00,0.00,-0.06,0.00,259.81,72.66,-42.40,26.52,1547.41,0.00,72.92,179.91
25433,0.00,0.00,-1.00,-0.12,-0.06,0.12,259.81,72.66,-42.40,26.51,1547.56,-0.01,72.86,179.92
25457,0.00,0.00,-1.00,-0.06,-0.06,0.12,270.83,64.76,-68.14,26.52,1549.40,0.02,72.94,179.91
25481,0.00,0.00,-1.00,-0.06,-0.06,0.00,270.83,64.76,-68.14,26.54,1549.61,0.03,73.03,179.91
25507,-0.00,0.00,-1.00,-0.12,0.00,0.00,270.83,64.76,-68.14,26.54,1546.46,0.05,73.11,179.90
25531,-0.00,0.00,-1.00,0.00,-0.06,0.06,270.83,64.76,-68.14,26.53,1548.75,0.07,73.18,179.88
25555,0.00,0.00,-1.00,0.00,-0.06,0.12,270.83,64.76,-68.14,26.53,1547.10,0.08,73.24,179.87
25579,0.00,-0.00,-1.00,-0.12,0.00,0.12,261.38,67.92,-68.14,26.55,1549.25,0.06,73.23,179.89
25603,0.00,0.00,-1.00,-0.12,-0.06,0.00,261.38,67.92,-68.14,26.53,1547.74,0.04,73.23,179.89
25629,0.00,0.00,-1.00,-0.06,-0.06,0.12,261.38,67.92,-68.14,26.54,1547.90,0.03,73.22,179.89
25653,-0.00,0.00,-1.00,-0.06,-0.06,-0.06,261.38,67.92,-68.14,26.54,1548.42,0.04,73.21,179.90
25677,-0.00,0.00,-1.00,-0.12,-0.06,0.00,261.38,67.92,-68.14,26.55,1547.10,0.04,73.21,179.90
25702,0.00,0.00,-1.00,-0.06,-0.06,0.18,269.26,60.03,-66.63,26.54,1550.01,0.06,73.32,179.88
25726,-0.00,0.00,-1.00,0.00,-0.12,0.06,269.26,60.03,-66.63,26.53,1550.49,0.09,73.43,179.87
25750,0.00,0.00,-1.00,-0.12,-0.06,0.12,269.26,60.03,-66.63,26.53,1547.90,0.08,73.54,179.87
25776,0.00,0.00,-1.00,-0.12,0.00,-0.06,269.26,60.03,-66.63,26.52,1547.34,0.09,73.64,179.85
25800,0.00,0.00,-1.00,-0.06,0.00,0.00,269.26,60.03,-66.63,26.53,1547.62,0.09,73.73,179.83
25824,0.00,0.00,-1.00,-0.06,-0.06,0.12,258.23,61.61,-53.00,26.53,1544.78,0.08,73.77,179.83
25848,0.00,0.00,-1.00,-0.06,-0.12,0.18,258.23,61.61,-53.00,26.54,1547.55,0.07,73.80,179.83
25873,0.00,0.00,-1.00,-0.06,0.06,0.12,258.23,61.61,-53.00,26.54,1549.12,0.06,73.83,179.85
25897,-0.00,0.00,-1.01,0.00,-0.06,0.06,258.23,61.61,-53.00,26.54,1544.19,0.07,73.86,179.85
25922,-0.00,0.00,-1.00,-0.06,-0.06,0.18,258.23,61.61,-53.00,26.54,1546.36,0.07,73.88,179.86
25947,-0.00,0.00,-1.00,0.00,0.00,0.00,258.23,71.08,-65.11,26.52,1546.33,0.04,73.77,179.86
25971,0.00,0.00,-1.00,-0.06,0.00,0.06,258.23,71.08,-65.11,26.54,1546.94,-0.01,73.67,179.89
25995,-0.00,0.00,-1.01,-0.06,-0.06,0.12,258.23,71.08,-65.11,26.53,1548.90,-0.01,73.57,179.90
26019,0.00,-0.00,-1.00,-0.12,0.00,0.00,258.23,71.08,-65.11,26.54,1547.19,-0.04,73.49,179.92
26045,0.00,0.00,-1.00,0.00,-0.12,0.06,258.23,71.08,-65.11,26.54,1546.46,-0.06,73.40,179.93
26069,-0.00,0.00,-1.00,-0.06,0.00,0.06,256.66,63.19,-63.60,26.53,1546.88,-0.04,73.43,179.94
26093,0.00,0.00,-1.00,-0.06,-0.12,0.06,256.66,63.19,-63.60,26.54,1546.03,-0.03,73.46,179.93
26117,-0.00,0.00,-1.00,0.00,0.00,0.06,256.66,63.19,-63.60,26.54,1545.63,-0.01,73.49,179.93
26142,0.00,0.00,-1.00,-0.12,-0.06,0.24,256.66,63.19,-63.60,26.53,1548.38,-0.01,73.51,179.90
26166,0.00,0.00,-1.00,0.00,-0.06,0.06,256.66,63.19,-63.60,26.54,1546.85,-0.01,73.53,179.90
26196,0.00,0.00,-1.00,0.00,0.00,0.06,269.26,60.03,-54.51,26.56,1547.40,0.01,73.66,179.88
26220,-0.00,0.00,-1.00,0.00,-0.06,0.06,269.26,60.03,-54.51,26.55,1549.05,0.04,73.75,179.88
26244,-0.00,0.00,-1.00,0.00,-0.18,-0.06,269.26,60.03,-54.51,26.55,1548.48,0.06,73.84,179.88
26268,-0.00,0.00,-1.00,-0.06,-0.12,0.12,269.26,60.03,-54.51,26.55,1546.46,0.08,73.93,179.88
26292,0.00,0.00,-1.00,0.00,0.00,0.06,269.26,60.03,-54.51,26.52,1549.09,0.08,74.00,179.88
26318,-0.00,0.00,-1.00,-0.06,-0.06,0.12,261.38,61.61,-56.03,26.53,1543.89,0.09,74.03,179.88
26342,0.00,0.00,-1.00,0.00,0.00,0.06,261.38,61.61,-56.03,26.57,1551.01,0.08,74.06,179.88
26366,-0.00,0.00,-1.00,0.00,-0.06,0.12,261.38,61.61,-56.03,26.52,1549.79,0.08,74.08,179.88
26390,0.00,0.00,-1.01,0.12,-0.12,0.12,261.38,61.61,-56.03,26.53,1548.32,0.07,74.10,179.88
26414,0.00,0.00,-1.00,-0.12,-0.06,0.06,261.38,61.61,-56.03,26.52,1548.20,0.06,74.12,179.87
26439,0.00,0.00,-1.00,-0.12,-0.18,0.06,251.94,61.61,-65.11,26.51,1547.31,0.05,74.11,179.87
26482,-0.00,0.00,-1.00,0.00,0.06,0.12,251.94,61.61,-65.11,26.54,1546.61,0.04,74.09,179.86
26507,-0.00,0.00,-1.00,-0.12,-0.06,0.00,251.94,61.61,-65.11,26.55,1547.04,0.05,74.08,179.87
26531,0.00,0.00,-1.00,0.00,-0.12,0.00,251.94,61.61,-65.11,26.51,1547.96,0.03,74.07,179.88
26555,0.00,0.00,-1.00,0.00,0.00,0.00,273.98,67.92,-56.03,26.53,1547.59,0.03,74.05,179.89
26579,0.00,0.00,-1.00,0.06,-0.12,0.18,273.98,67.92,-56.03,26.55,1547.22,0.02,74.03,179.88
26605,0.00,0.00,-1.00,-0.06,0.00,0.12,273.98,67.92,-56.03,26.56,1550.10,0.01,74.01,179.89
26629,0.00,0.00,-1.00,-0.06,-0.12,0.00,273.98,67.92,-56.03,26.54,1548.17,0.01,73.99,179.87
26653,-0.00,0.00,-1.00,-0.12,0.00,0.00,273.98,67.92,-56.03,26.53,1549.36,0.02,73.98,179.88
26677,0.00,0.00,-1.00,-0.12,0.00,0.00,264.53,61.61,-49.97,26.54,1548.44,0.02,74.02,179.87
26702,0.00,0.00,-1.00,-0.18,-0.12,0.12,264.53,61.61,-49.97,26.54,1547.92,0.02,74.06,179.88
26726,0.00,0.00,-1.00,0.00,-0.06,0.18,264.53,61.61,-49.97,26.54,1549.12,0.02,74.09,179.87
26751,0.00,0.00,-1.00,0.00,-0.12,0.06,264.53,61.61,-49.97,26.56,1546.40,0.02,74.12,179.89
26775,0.00,0.00,-1.00,0.00,-0.06,0.00,264.53,61.61,-49.97,26.54,1549.76,0.02,74.16,179.88
26800,-0.00,0.00,-1.00,0.00,0.00,0.00,248.79,64.76,-62.08,26.54,1549.24,0.02,74.09,179.88
26824,-0.00,0.00,-1.00,0.00,-0.12,0.06,248.79,64.76,-62.08,26.56,1549.49,0.01,74.02,179.90
26848,-0.00,0.00,-1.00,0.00,0.00,0.12,248.79,64.76,-62.08,26.53,1546.21,0.00,73.96,179.90
26872,-0.00,0.00,-1.00,-0.06,-0.06,0.06,248.79,64.76,-62.08,26.52,1549.21,0.00,73.90,179.91
26898,0.00,0.00,-1.00,0.00,-0.12,0.06,248.79,64.76,-62.08,26.56,1545.75,-0.01,73.84,179.91
26922,-0.00,0.00,-1.00,-0.06,0.00,0.12,267.68,74.24,-62.08,26.54,1549.33,-0.03,73.72,179.91
26946,0.00,0.00,-1.00,0.00,0.00,0.06,267.68,74.24,-62.08,26.56,1547.03,-0.06,73.61,179.91
26970,0.00,0.00,-1.00,-0.06,-0.12,0.06,267.68,74.24,-62.08,26.55,1545.93,-0.07,73.51,179.90
26994,0.00,0.00,-1.01,-0.06,0.00,0.12,267.68,74.24,-62.08,26.55,1548.72,-0.08,73.42,179.90
27020,-0.00,0.00,-1.00,-0.06,-0.18,0.06,267.68,74.24,-62.08,26.53,1550.25,-0.07,73.33,179.90
27044,0.00,0.00,-1.00,-0.06,-0.12,0.06,255.09,61.61,-62.08,26.54,1547.77,-0.05,73.38,179.89
27069,0.00,0.00,-1.00,0.00,0.00,0.06,255.09,61.61,-62.08,26.56,1546.27,-0.03,73.43,179.88
27093,0.00,0.00,-1.00,0.00,-0.12,0.12,255.09,61.61,-62.08,26.54,1551.13,-0.02,73.47,179.88
27117,-0.00,0.00,-1.00,-0.12,-0.06,0.06,255.09,61.61,-62.08,26.54,1550.00,0.01,73.51,179.88
27141,-0.00,0.00,-1.00,-0.06,-0.12,0.06,255.09,61.61,-62.08,26.54,1545.38,0.03,73.55,179.88
27167,0.00,0.00,-1.00,-0.06,-0.12,0.06,262.96,60.03,-63.60,26.57,1548.20,0.04,73.64,179.87
27191,0.00,0.00,-1.00,0.00,-0.18,0.06,262.96,60.03,-63.60,26.57,1546.48,0.04,73.71,179.87
27215,0.00,0.00,-1.00,-0.06,0.00,0.12,262.96,60.03,-63.60,26.54,1548.53,0.05,73.78,179.87
27239,-0.00,0.00,-1.00,0.00,-0.12,0.00,262.96,60.03,-63.60,26.54,1548.93,0.08,73.85,179.86
27263,0.00,0.00,-1.00,-0.06,-0.06,0.12,262.96,60.03,-63.60,26.55,1547.43,0.08,73.91,179.87
27294,-0.00,0.00,-1.00,0.00,-0.06,0.00,264.53,83.72,-53.00,26.53,1547.53,0.00,73.53,179.89
27318,0.00,0.00,-1.00,-0.12,0.00,0.12,264.53,83.72,-53.00,26.56,1549.94,-0.05,73.26,179.91
27342,0.00,0.00,-1.00,-0.06,0.00,0.12,264.53,83.72,-53.00,26.54,1548.23,-0.10,73.01,179.92
27366,0.00,0.00,-1.00,-0.06,-0.12,0.06,264.53,83.72,-53.00,26.53,1547.55,-0.12,72.78,179.94
27390,-0.00,0.00,-1.00,-0.06,-0.06,0.12,264.53,83.72,-53.00,26.54,1548.81,-0.11,72.58,179.94
27415,0.00,0.00,-1.00,0.12,-0.06,0.06,244.06,63.19,-54.51,26.54,1550.06,-0.09,72.62,179.93
27440,-0.00,0.00,-1.00,-0.06,0.00,0.06,244.06,63.19,-54.51,26.56,1548.23,-0.06,72.66,179.92
27464,-0.00,0.00,-1.00,0.00,-0.12,0.00,244.06,63.19,-54.51,26.55,1548.47,-0.03,72.70,179.92
27489,-0.00,0.00,-1.00,-0.06,-0.06,0.06,244.06,63.19,-54.51,26.57,1547.58,-0.02,72.73,179.92
27513,0.00,0.00,-1.01,-0.12,0.00,0.06,244.06,63.19,-54.51,26.55,1548.50,-0.02,72.76,179.91
27537,0.00,0.00,-1.00,0.00,-0.12,0.06,266.11,63.19,-54.51,26.53,1544.53,0.00,72.87,179.90
27563,-0.00,0.00,-1.00,0.06,0.00,0.12,266.11,63.19,-54.51,26.54,1547.28,0.03,72.97,179.88
27587,0.00,0.00,-1.00,-0.06,-0.06,0.12,266.11,63.19,-54.51,26.55,1546.45,0.04,73.06,179.86
27611,0.00,0.00,-1.00,0.00,0.00,0.12,266.11,63.19,-54.51,26.54,1547.52,0.04,73.14,179.86
27635,0.00,0.00,-1.01,0.06,0.00,0.06,266.11,63.19,-54.51,26.56,1550.19,0.03,73.22,179.85
27659,0.00,0.00,-1.01,0.06,-0.06,0.12,266.11,63.19,-54.51,26.56,1546.66,0.03,73.29,179.85
27684,0.00,0.00,-1.00,0.00,0.00,0.00,258.23,77.40,-56.03,26.56,1546.88,-0.01,73.12,179.86
27709,0.00,0.00,-1.00,-0.06,-0.06,0.00,258.23,77.40,-56.03,26.54,1548.16,-0.07,72.95,179.86
27733,0.00,0.00,-1.00,-0.12,0.00,0.00,258.23,77.40,-56.03,26.54,1548.75,-0.10,72.81,179.87
27757,0.00,0.00,-1.00,-0.06,-0.06,0.12,258.23,77.40,-56.03,26.53,1547.89,-0.11,72.67,179.89
27782,0.00,0.00,-1.00,-0.06,-0.06,0.06,258.23,77.40,-56.03,26.56,1548.66,-0.13,72.55,179.91
27806,0.00,0.00,-1.00,-0.06,0.06,0.06,256.66,66.34,-60.57,26.55,1550.15,-0.11,72.60,179.91
27832,0.00,0.00,-1.00,-0.06,-0.06,0.18,256.66,66.34,-60.57,26.56,1548.53,-0.08,72.64,179.92
27856,0.00,0.00,-1.00,-0.06,0.00,0.06,256.66,66.34,-60.57,26.54,1548.50,-0.07,72.68,179.91
27880,-0.00,0.00,-1.00,-0.12,-0.12,0.12,256.66,66.34,-60.57,26.54,1547.71,-0.04,72.71,179.91
27920,0.00,0.00,-1.00,-0.12,-0.06,0.06,261.38,67.92,-59.06,26.54,1546.64,-0.02,72.76,179.89
27944,-0.00,0.00,-1.00,0.00,0.00,0.06,261.38,67.92,-59.06,26.54,1549.12,0.00,72.78,179.88
27968,0.00,0.00,-1.00,-0.06,0.00,0.12,261.38,67.92,-59.06,26.56,1550.12,0.00,72.80,179.87
27994,0.00,0.00,-1.00,0.00,-0.12,0.12,261.38,67.92,-59.06,26.53,1546.70,0.01,72.83,179.86
28018,-0.00,0.00,-1.00,-0.06,-0.06,0.06,261.38,67.92,-59.06,26.54,1545.66,0.02,72.85,179.86
28042,-0.00,0.00,-1.00,-0.06,-0.12,0.06,258.23,74.24,-46.94,26.56,1547.89,0.01,72.76,179.87
28067,0.00,0.00,-1.00,-0.06,-0.06,0.06,258.23,74.24,-46.94,26.53,1546.85,-0.01,72.67,179.86
28091,0.00,0.00,-1.00,-0.06,-0.06,0.12,258.23,74.24,-46.94,26.56,1548.16,-0.02,72.60,179.88
28115,-0.00,0.00,-1.00,-0.06,-0.06,0.06,258.23,74.24,-46.94,26.54,1546.91,-0.02,72.53,179.87
28141,0.00,0.00,-1.00,0.00,-0.12,0.18,258.23,74.24,-46.94,26.54,1546.97,-0.02,72.45,179.86
28165,-0.00,0.00,-1.00,-0.06,0.00,0.18,272.41,69.50,-60.57,26.54,1548.16,-0.00,72.51,179.85
28189,0.00,0.00,-1.00,0.00,-0.12,0.12,272.41,69.50,-60.57,26.55,1547.58,0.01,72.57,179.85
28213,0.00,0.00,-1.00,-0.06,-0.18,0.06,272.41,69.50,-60.57,26.56,1549.02,0.01,72.62,179.86
28237,0.00,0.00,-1.00,-0.06,-0.06,0.12,272.41,69.50,-60.57,26.55,1546.24,0.02,72.67,179.86
28263,0.00,0.00,-1.00,-0.06,-0.06,0.18,272.41,69.50,-60.57,26.55,1546.64,0.03,72.72,179.86
28287,0.00,0.00,-1.00,0.00,0.00,0.12,259.81,60.03,-57.54,26.57,1546.18,0.04,72.84,179.85
28312,0.00,0.00,-1.00,-0.06,0.00,0.12,259.81,60.03,-57.54,26.55,1549.23,0.05,72.96,179.86
28336,0.00,0.00,-1.00,0.00,-0.06,0.12,259.81,60.03,-57.54,26.56,1548.59,0.07,73.07,179.85
28360,0.00,0.00,-1.01,0.00,-0.06,0.06,259.81,60.03,-57.54,26.55,1546.76,0.08,73.17,179.86
28384,0.00,0.00,-1.00,0.00,-0.12,0.06,259.81,60.03,-57.54,26.55,1548.38,0.09,73.26,179.85
28414,0.00,0.00,-1.00,-0.06,-0.12,0.06,255.09,67.92,-68.14,26.55,1548.01,0.06,73.22,179.86
28438,-0.00,0.00,-1.00,-0.06,-0.06,0.06,255.09,67.92,-68.14,26.54,1549.08,0.05,73.19,179.85
28462,0.00,0.00,-1.00,0.00,-0.06,0.06,255.09,67.92,-68.14,26.55,1548.50,0.03,73.16,179.85
28487,0.00,-0.00,-1.00,-0.06,-0.12,0.06,255.09,67.92,-68.14,26.55,1549.05,0.02,73.14,179.88
28511,0.00,0.00,-1.00,-0.06,-0.06,0.06,255.09,67.92,-68.14,26.55,1549.63,-0.00,73.11,179.89
28537,-0.00,0.00,-1.00,0.06,0.00,0.12,264.53,61.61,-62.08,26.54,1546.14,0.02,73.21,179.87
28561,-0.00,0.00,-1.00,-0.06,0.00,0.00,264.53,61.61,-62.08,26.54,1549.81,0.05,73.30,179.86
28585,0.00,0.00,-1.00,0.00,0.00,0.24,264.53,61.61,-62.08,26.56,1549.23,0.05,73.38,179.85
28609,0.00,-0.00,-1.00,-0.06,-0.24,0.12,264.53,61.61,-62.08,26.54,1550.03,0.06,73.45,179.87
28633,0.00,0.00,-1.01,-0.12,0.00,0.12,264.53,61.61,-62.08,26.54,1546.54,0.07,73.52,179.88
28658,-0.00,0.00,-1.00,-0.06,-0.12,0.00,251.94,64.76,-65.11,26.53,1547.27,0.08,73.50,179.89
28683,0.00,0.00,-1.00,-0.06,-0.06,0.12,251.94,64.76,-65.11,26.54,1549.94,0.06,73.49,179.89
28707,0.00,0.00,-1.00,0.00,-0.06,0.06,251.94,64.76,-65.11,26.56,1551.19,0.04,73.47,179.89
28732,0.00,0.00,-1.00,0.00,-0.06,0.00,251.94,64.76,-65.11,26.54,1546.48,0.02,73.46,179.89
28756,0.00,0.00,-1.00,-0.06,-0.12,0.06,251.94,64.76,-65.11,26.56,1546.20,0.01,73.45,179.90
28780,-0.00,0.00,-1.00,0.00,-0.06,0.18,262.96,63.19,-51.48,26.54,1548.99,0.03,73.49,179.88
28806,-0.00,0.00,-1.00,0.00,-0.12,0.06,262.96,63.19,-51.48,26.55,1549.02,0.04,73.54,179.86
28830,0.00,0.00,-1.00,-0.06,-0.06,0.00,262.96,63.19,-51.48,26.54,1547.00,0.05,73.59,179.87
28854,-0.00,0.00,-1.00,-0.12,-0.06,0.06,262.96,63.19,-51.48,26.53,1546.79,0.06,73.63,179.86
28878,0.00,0.00,-1.00,0.00,0.00,0.06,262.96,63.19,-51.48,26.56,1547.15,0.06,73.66,179.87
28902,0.00,0.00,-1.00,0.00,0.00,0.12,258.23,61.61,-59.06,26.54,1548.32,0.04,73.70,179.87
28927,0.00,0.00,-1.00,0.00,-0.06,0.12,258.23,61.61,-59.06,26.56,1544.61,0.05,73.74,179.87
28952,0.00,0.00,-1.00,-0.06,-0.12,0.12,258.23,61.61,-59.06,26.55,1546.79,0.04,73.77,179.86
28976,0.00,0.00,-1.00,0.00,-0.06,0.06,258.23,61.61,-59.06,26.58,1548.95,0.04,73.80,179.85
29000,0.00,0.00,-1.00,0.00,-0.06,0.12,258.23,61.61,-59.06,26.55,1548.34,0.05,73.83,179.85
29025,0.00,0.00,-1.00,-0.06,-0.06,0.06,256.66,63.19,-63.60,26.57,1547.82,0.04,73.83,179.86
29049,-0.00,0.00,-1.00,-0.06,-0.06,0.12,256.66,63.19,-63.60,26.55,1547.79,0.05,73.83,179.88
29073,-0.00,0.00,-1.00,0.00,-0.18,0.12,256.66,63.19,-63.60,26.56,1549.02,0.05,73.83,179.87
29099,0.00,-0.00,-1.00,-0.12,-0.06,0.06,256.66,63.19,-63.60,26.53,1545.50,0.04,73.83,179.90
29123,0.00,0.00,-1.00,0.06,-0.06,0.00,256.66,63.19,-63.60,26.53,1547.98,0.02,73.84,179.88
29147,0.00,0.00,-1.00,-0.12,-0.12,0.12,255.09,67.92,-68.14,26.55,1545.96,-0.01,73.76,179.89
29172,0.00,0.00,-1.00,-0.12,0.06,0.18,255.09,67.92,-68.14,26.56,1546.94,-0.03,73.69,179.89
29196,0.00,0.00,-1.00,0.06,-0.12,0.06,255.09,67.92,-68.14,26.56,1546.75,-0.04,73.63,179.89
29222,0.00,0.00,-1.01,-0.12,0.00,0.06,255.09,67.92,-68.14,26.54,1547.79,-0.06,73.57,179.88
29246,0.00,0.00,-1.00,-0.06,0.00,0.00,255.09,67.92,-68.14,26.55,1548.10,-0.07,73.52,179.89
29270,-0.00,0.00,-1.00,-0.12,-0.06,0.06,256.66,66.34,-54.51,26.55,1546.79,-0.05,73.50,179.88
29294,-0.00,0.00,-1.00,-0.06,-0.06,0.12,256.66,66.34,-54.51,26.56,1545.87,-0.04,73.48,179.89
29318,0.00,0.00,-1.00,0.00,-0.06,0.06,256.66,66.34,-54.51,26.56,1546.94,-0.06,73.46,179.88
29364,-0.00,0.00,-1.00,0.00,-0.12,0.12,256.66,66.34,-54.51,26.56,1549.02,-0.04,73.43,179.88
29390,-0.00,0.00,-1.00,0.00,-0.12,0.12,251.94,61.61,-46.94,26.57,1547.62,-0.01,73.46,179.88
29414,0.00,0.00,-1.00,-0.06,-0.06,0.06,251.94,61.61,-46.94,26.59,1546.30,-0.01,73.50,179.89
29439,0.00,0.00,-1.00,-0.06,-0.06,0.06,251.94,61.61,-46.94,26.56,1545.87,-0.01,73.53,179.88
29463,-0.00,0.00,-1.00,-0.06,-0.06,0.00,251.94,61.61,-46.94,26.57,1548.84,0.00,73.56,179.88
29487,0.00,0.00,-1.00,0.00,-0.06,-0.06,251.94,61.61,-46.94,26.55,1547.89,-0.01,73.59,179.88
29517,-0.00,0.00,-1.00,0.06,-0.06,0.00,267.68,64.76,-53.00,26.55,1548.62,0.01,73.64,179.88
29541,0.00,0.00,-1.00,-0.06,0.00,0.00,267.68,64.76,-53.00,26.56,1547.58,0.01,73.67,179.87
29565,-0.00,0.00,-1.00,-0.06,-0.12,0.12,267.68,64.76,-53.00,26.57,1548.50,0.03,73.69,179.88
29590,-0.00,0.00,-1.01,-0.12,-0.06,0.06,267.68,64.76,-53.00,26.57,1548.93,0.03,73.72,179.87
29614,0.00,0.00,-1.00,0.00,-0.12,0.06,267.68,64.76,-53.00,26.56,1549.23,0.02,73.75,179.86
29638,0.00,0.00,-1.00,-0.06,-0.12,-0.06,256.66,66.34,-60.57,26.55,1548.10,0.01,73.71,179.88
29673,0.00,0.00,-1.00,0.00,-0.12,0.18,256.66,66.34,-60.57,26.54,1546.20,-0.02,73.66,179.88
29697,0.00,0.00,-1.00,0.00,-0.06,0.00,256.66,66.34,-60.57,26.56,1549.78,-0.02,73.63,179.89
29721,0.00,0.00,-1.00,0.00,-0.06,0.12,256.66,66.34,-60.57,26.55,1547.92,-0.03,73.60,179.88
29745,0.00,0.00,-1.00,0.00,0.00,0.06,256.66,66.34,-60.57,26.54,1547.34,-0.04,73.57,179.87
29769,0.00,0.00,-1.00,0.00,-0.06,0.12,255.09,74.24,-59.06,26.55,1547.40,-0.07,73.42,179.87
29795,-0.00,0.00,-1.00,-0.06,0.06,0.12,255.09,74.24,-59.06,26.56,1547.88,-0.09,73.26,179.86
29819,-0.00,0.00,-1.00,0.00,-0.12,0.12,255.09,74.24,-59.06,26.57,1547.06,-0.09,73.13,179.86
29843,0.00,0.00,-1.00,-0.06,-0.06,0.12,255.09,74.24,-59.06,26.55,1549.08,-0.10,73.01,179.87
29867,-0.00,0.00,-1.00,-0.06,-0.06,0.06,255.09,74.24,-59.06,26.53,1546.51,-0.11,72.90,179.89
29892,-0.00,0.00,-1.00,-0.06,-0.06,0.12,259.81,60.03,-54.51,26.57,1549.08,-0.04,73.02,179.89
29916,0.00,0.00,-1.00,0.00,-0.12,0.12,259.81,60.03,-54.51,26.56,1547.92,-0.02,73.12,179.88
29942,0.00,0.00,-1.00,-0.06,-0.12,0.00,259.81,60.03,-54.51,26.57,1543.82,-0.01,73.23,179.87
29966,0.00,0.00,-1.00,-0.06,0.00,0.06,259.81,60.03,-54.51,26.57,1547.06,0.00,73.33,179.86
29990,0.00,0.00,-1.00,-0.06,-0.12,0.12,259.81,60.03,-54.51,26.55,1546.36,0.02,73.41,179.86
30014,0.00,0.00,-1.00,0.00,-0.12,0.12,264.53,48.97,-49.97,26.56,1547.24,0.04,73.64,179.85
30038,0.00,0.00,-1.00,-0.06,-0.12,0.12,264.53,48.97,-49.97,26.57,1546.17,0.07,73.86,179.83
30064,0.00,0.00,-1.00,0.00,-0.06,0.12,264.53,48.97,-49.97,26.54,1548.41,0.10,74.07,179.83
