millis,ax,ay,az,gx,gy,gz,mx,my,mz,temp,alt,pitch,yaw,roll
13810,0.07,-0.10,-0.95,-18.07,0.06,-1.34,316.49,104.26,-30.28,26.80,1555.57,-59.34,-182.28,24.84
13834,0.10,-0.11,-0.98,-5.55,1.53,-4.03,316.49,104.26,-30.28,26.80,1557.21,-60.68,176.91,26.25
13858,0.09,-0.08,-0.97,-4.03,1.04,-1.10,316.49,104.26,-30.28,26.78,1554.57,-62.03,175.99,27.81
13882,0.09,-0.05,-0.95,-3.54,2.69,-0.85,316.49,104.26,-30.28,26.80,1553.25,-63.31,174.92,29.55
13907,0.06,-0.03,-0.98,-5.49,1.83,-1.04,316.49,104.26,-30.28,26.79,1554.84,-64.57,173.56,31.51
13931,0.04,-0.03,-0.98,-6.59,0.00,-1.83,324.37,99.52,-49.97,26.80,1554.83,-65.83,171.95,33.72
13962,0.08,-0.10,-0.94,-13.67,-5.74,1.34,324.37,99.52,-49.97,26.80,1554.40,-67.62,169.80,36.35
13986,0.11,-0.13,-0.90,-5.74,-0.31,-0.98,324.37,99.52,-49.97,26.78,1554.67,-68.92,167.95,38.76
14010,0.06,-0.08,-0.94,-4.58,4.33,2.56,324.37,99.52,-49.97,26.80,1557.06,-70.08,165.99,41.34
14035,0.03,-0.03,-1.00,-4.46,1.34,2.38,318.07,108.99,-53.00,26.77,1555.25,-71.21,163.34,44.61
14059,0.05,-0.02,-0.96,-7.08,-2.14,1.59,318.07,108.99,-53.00,26.80,1556.99,-72.30,160.03,48.43
14103,0.07,-0.07,-0.96,-6.96,0.37,-2.62,318.07,108.99,-53.00,26.79,1552.19,-73.94,152.96,56.41
14127,0.03,-0.02,-1.01,-5.31,-1.83,-5.07,318.07,108.99,-53.00,26.80,1555.83,-74.59,147.96,61.93
14152,0.06,-0.07,-0.98,-11.17,-6.47,-1.40,318.07,108.99,-53.00,26.80,1554.82,-75.29,142.35,67.90
14176,0.11,-0.06,-0.92,-1.04,-3.72,-4.03,316.49,94.78,-57.54,26.83,1555.42,-75.74,136.43,74.46
14201,0.05,-0.01,-0.90,-1.22,1.71,-6.53,316.49,94.78,-57.54,26.81,1553.71,-75.83,130.66,80.87
14226,0.07,-0.12,-0.98,-17.52,-0.55,-0.37,316.49,94.78,-57.54,26.83,1552.61,-76.06,124.30,87.47
14251,0.07,-0.08,-1.00,-3.54,0.12,-2.62,316.49,94.78,-57.54,26.82,1554.32,-75.99,118.32,94.02
14275,0.05,-0.02,-0.97,-1.16,-3.48,-2.99,316.49,94.78,-57.54,26.81,1555.57,-75.64,112.20,100.74
14300,0.07,-0.05,-0.93,0.12,-8.00,-5.55,335.39,97.94,-45.43,26.81,1553.77,-75.05,106.04,107.53
14324,0.11,-0.08,-0.92,-10.01,-3.54,-0.85,335.39,97.94,-45.43,26.81,1554.44,-74.49,100.65,113.30
14348,0.05,-0.08,-0.96,-7.45,0.37,-2.99,335.39,97.94,-45.43,26.80,1551.68,-73.76,96.09,118.32
14374,0.06,-0.07,-0.98,-5.68,-1.34,-2.93,335.39,97.94,-45.43,26.82,1555.29,-72.82,91.64,123.29
14398,0.06,-0.03,-0.99,-4.09,-4.03,-6.16,335.39,97.94,-45.43,26.82,1557.22,-71.69,88.06,127.39
14423,0.07,-0.08,-0.94,-6.84,-4.82,-7.51,316.49,116.89,-42.40,26.82,1555.90,-70.49,84.75,131.12
14447,0.06,-0.03,-0.90,-12.51,-0.12,-5.74,316.49,116.89,-42.40,26.82,1556.03,-69.30,82.19,133.96
14472,-0.08,0.21,-0.55,-92.59,-16.66,32.17,316.49,116.89,-42.40,26.81,1552.63,-68.06,78.55,135.67
14498,0.09,0.09,0.02,-289.49,-66.47,88.26,316.49,116.89,-42.40,26.82,1555.99,-67.79,74.56,131.88
14522,0.09,0.09,0.02,-292.66,-72.27,84.59,316.49,116.89,-42.40,26.80,1557.98,-67.48,70.71,128.42
14546,0.09,0.08,0.03,-292.36,-77.94,79.71,215.72,164.28,-102.97,26.79,1552.81,-66.96,66.53,124.99
14571,0.09,0.09,0.02,-291.56,-83.31,74.34,215.72,164.28,-102.97,26.83,1556.63,-66.15,62.19,121.82
14595,0.09,0.09,0.02,-290.16,-88.20,68.30,215.72,164.28,-102.97,26.82,1554.98,-65.25,57.79,118.69
14621,0.09,0.09,0.02,-288.09,-92.90,62.19,215.72,164.28,-102.97,26.82,1554.15,-64.10,52.94,115.52
14646,0.09,0.09,0.02,-285.58,-96.98,55.48,215.72,164.28,-102.97,26.80,1555.31,-62.92,48.39,112.56
14670,0.09,0.09,0.02,-282.65,-100.65,48.58,-53.54,219.57,-113.57,26.82,1555.16,-62.29,41.74,110.67
14694,0.09,0.09,0.02,-278.93,-104.31,41.26,-53.54,219.57,-113.57,26.83,1555.77,-61.44,35.16,108.80
14719,0.09,0.10,0.02,-276.25,-106.81,34.91,-53.54,219.57,-113.57,26.82,1554.86,-60.38,28.77,106.78
14745,0.09,0.10,0.02,-273.25,-109.38,24.78,-53.54,219.57,-113.57,26.81,1554.18,-59.12,22.44,104.15
14769,0.09,0.10,0.03,-272.09,-110.35,15.87,-53.54,219.57,-113.57,26.82,1552.07,-57.95,16.99,101.16
14794,0.09,0.10,0.03,-271.30,-109.86,8.61,-258.23,279.59,53.00,26.80,1554.61,-57.06,12.98,96.90
14818,0.09,0.11,0.03,-268.43,-108.83,-1.16,-258.23,279.59,53.00,26.81,1554.21,-55.89,9.24,92.65
14842,0.10,0.12,0.03,-264.89,-107.24,-10.56,-258.23,279.59,53.00,26.82,1552.28,-54.58,5.79,88.33
14868,0.09,0.12,0.04,-260.44,-105.22,-20.63,-258.23,279.59,53.00,26.82,1552.90,-53.01,2.37,83.77
14893,0.09,0.12,0.05,-257.08,-103.33,-31.01,-258.23,279.59,53.00,26.81,1551.33,-51.48,-0.59,79.50
14917,0.09,0.13,0.06,-258.24,-99.98,-40.28,-307.05,309.61,314.96,26.81,1552.65,-50.19,-2.99,75.19
14941,0.10,0.13,0.07,-263.73,-95.03,-49.19,-307.05,309.61,314.96,26.81,1552.62,-48.91,-5.25,70.69
14966,0.10,0.12,0.09,-273.68,-88.68,-58.65,-307.05,309.61,314.96,26.79,1551.33,-47.62,-7.40,65.79
14990,0.10,0.12,0.09,-286.56,-79.65,-66.04,-307.05,309.61,314.96,26.80,1552.31,-46.32,-9.36,60.44
15021,0.10,0.11,0.11,-302.67,-65.00,-69.82,-195.25,304.87,525.44,26.81,1553.53,-44.71,-11.57,52.64
15045,0.10,0.11,0.11,-318.18,-50.84,-71.66,-195.25,304.87,525.44,26.80,1548.21,-43.37,-13.08,45.88
15069,0.11,0.10,0.13,-334.29,-34.73,-72.75,-195.25,304.87,525.44,26.80,1550.14,-41.96,-14.32,38.42
15094,-14.11,12.07,16.06,161.07,365.97,-60.18,-195.25,304.87,525.44,26.81,1548.43,-32.85,-8.23,38.61
15118,-0.14,0.15,0.12,-328.49,-654.48,57.50,-195.25,304.87,525.44,26.80,1548.61,-44.97,-19.01,37.48
15144,-0.05,0.12,-0.05,-334.17,-669.98,1.34,-11.02,151.64,654.15,26.79,1548.36,-57.15,-37.89,44.34
15168,-0.04,0.12,-0.04,-336.55,-663.21,-54.50,-11.02,151.64,654.15,26.81,1549.25,-64.94,-67.15,62.34
15193,-0.04,0.13,-0.04,-340.94,-651.00,-109.19,-11.02,151.64,654.15,26.79,1549.04,-65.25,-106.13,89.72
15217,-0.03,0.13,-0.03,-345.95,-635.50,-163.94,-11.02,151.64,654.15,26.79,1549.34,-57.70,-136.99,108.50
15242,-0.02,0.13,-0.03,-350.95,-616.15,-217.83,-11.02,151.64,654.15,26.80,1549.68,-46.17,-156.39,115.05
15268,-0.02,0.14,-0.02,-355.96,-592.77,-270.57,75.58,-187.98,364.93,26.81,1549.47,-31.71,-171.17,114.62
15292,-0.01,0.14,-0.01,-360.90,-564.70,-321.29,75.58,-187.98,364.93,26.80,1550.08,-18.00,177.51,110.04
15316,-0.01,0.15,-0.01,-365.36,-531.80,-369.69,75.58,-187.98,364.93,26.80,1551.00,-4.80,166.55,102.59
15341,-0.00,0.15,-0.01,-369.38,-494.75,-415.10,75.58,-187.98,364.93,26.80,1547.29,7.03,154.66,92.66
15365,0.00,0.15,-0.00,-372.56,-453.98,-457.40,75.58,-187.98,364.93,26.79,1548.52,16.44,141.54,80.76
15391,0.01,0.15,0.01,-374.82,-409.61,-496.03,-245.64,58.45,125.68,26.82,1552.07,25.03,126.77,66.87
15416,0.01,0.15,0.02,-376.10,-361.76,-530.40,-245.64,58.45,125.68,26.80,1548.49,30.56,111.17,51.57
15440,0.02,0.15,0.02,-376.59,-311.04,-560.06,-245.64,58.45,125.68,26.78,1548.15,33.38,94.08,34.52
15464,0.02,0.15,0.03,-376.65,-257.63,-584.35,-245.64,58.45,125.68,26.79,1547.24,33.09,76.49,16.92
15489,0.02,0.15,0.04,-376.34,-213.99,-599.98,-245.64,58.45,125.68,26.80,1549.25,29.55,59.83,0.38
15530,0.03,0.13,0.05,-374.88,-114.38,-624.08,-114.95,423.34,411.87,26.80,1551.28,18.78,34.03,-23.62
15555,0.03,0.12,0.06,-373.60,-57.86,-631.77,-114.95,423.34,411.87,26.78,1548.61,9.61,20.89,-34.73
15579,-11.08,-3.41,1.63,-367.61,30.09,-568.05,-114.95,423.34,411.87,26.80,1548.55,2.95,9.29,-44.86
15603,-1.70,-0.23,0.20,-729.06,1313.05,-2000.00,-114.95,423.34,411.87,26.79,1549.41,-13.10,-42.09,-57.36
15628,-1.54,-0.21,0.07,-704.35,1641.05,-2000.00,-114.95,423.34,411.87,26.78,1547.82,-28.23,-101.51,-51.59
15654,-1.58,-0.31,-0.09,-686.16,1914.43,-1836.73,233.04,-121.63,286.19,26.80,1548.16,-23.54,-171.11,-36.01
15678,-2.01,-0.52,0.04,-794.86,1999.94,-1570.74,233.04,-121.63,286.19,26.77,1550.94,-7.00,132.77,-39.14
15703,-1.79,-0.53,-0.27,-678.10,1999.94,-1489.75,233.04,-121.63,286.19,26.80,1549.01,1.87,77.93,-53.15
15727,-1.79,-0.81,-0.76,-497.07,1999.94,-1349.98,233.04,-121.63,286.19,26.80,1550.30,-0.84,23.80,-66.63
15751,-1.98,0.09,-0.03,-224.85,1999.94,-1260.50,233.04,-121.63,286.19,26.77,1551.95,-8.94,-29.73,-67.46
15777,-0.15,0.03,-0.19,567.87,950.74,-518.55,335.39,28.43,187.76,26.78,1549.59,-6.92,-57.67,-50.36
15802,-0.36,0.12,-0.11,580.44,850.10,-648.62,335.39,28.43,187.76,26.77,1548.49,-0.78,-82.97,-34.68
15826,-0.37,0.12,-0.10,577.51,742.49,-770.87,335.39,28.43,187.76,26.78,1549.38,7.79,-107.35,-22.01
15850,-0.37,0.13,-0.08,578.37,616.39,-874.82,335.39,28.43,187.76,26.74,1547.79,17.16,-131.61,-13.02
15875,-0.49,0.38,0.18,575.81,470.46,-955.75,335.39,28.43,187.76,26.76,1546.72,25.25,-156.70,-7.39
15901,-0.67,0.92,0.46,147.64,6.96,174.99,-154.31,184.82,558.75,26.76,1549.44,25.51,-150.95,0.02
15925,0.09,0.08,0.04,148.50,10.80,262.21,-154.31,184.82,558.75,26.79,1546.65,24.20,-143.71,7.06
15949,0.09,0.08,0.04,148.68,18.86,261.54,-154.31,184.82,558.75,26.77,1550.05,22.28,-136.65,13.77
15973,0.09,0.09,0.04,148.74,28.87,260.19,-154.31,184.82,558.75,26.80,1547.54,19.86,-129.82,20.12
15998,0.59,2.50,0.35,558.59,12.08,-418.82,-154.31,184.82,558.75,26.77,1550.18,23.47,-139.34,30.90
16028,-0.33,1.24,-0.52,526.86,-10.01,-233.64,-236.19,146.91,413.39,26.79,1550.70,27.60,-145.40,45.99
16053,-0.16,0.71,-0.40,36.50,122.13,147.89,-236.19,146.91,413.39,26.81,1548.22,26.86,-139.87,50.80
16077,-0.15,1.52,-0.74,-433.47,270.08,389.04,-236.19,146.91,413.39,26.77,1549.57,23.86,-127.17,47.06
16101,0.16,0.19,0.04,-230.22,61.04,-93.93,-236.19,146.91,413.39,26.77,1548.59,25.59,-127.76,41.51
16126,0.06,1.63,0.17,-236.69,-6.41,-27.10,-236.19,146.91,413.39,26.77,1549.23,25.25,-128.16,36.34
16152,0.21,1.06,0.27,-133.79,-10.99,3.60,-226.74,137.43,443.67,26.75,1548.19,24.04,-128.08,33.41
16176,0.09,1.12,0.26,6.29,-2.26,0.73,-226.74,137.43,443.67,26.77,1547.70,23.20,-127.91,34.25
16200,0.16,1.10,0.18,84.53,0.18,-0.24,-226.74,137.43,443.67,26.77,1545.86,22.39,-127.75,37.04
16225,0.12,1.00,0.12,142.09,0.43,-2.56,-226.74,137.43,443.67,26.78,1545.28,21.67,-127.65,41.29
16249,0.13,1.06,0.07,220.64,-1.04,-1.59,-226.74,137.43,443.67,26.78,1548.28,20.93,-127.60,47.50
16275,0.14,1.18,-0.40,173.40,7.39,14.40,-231.47,132.69,414.90,26.79,1548.92,20.20,-126.94,53.58
16299,0.18,1.08,-0.22,-87.52,4.27,-4.33,-231.47,132.69,414.90,26.80,1548.55,19.74,-126.74,52.64
16324,0.10,1.20,0.03,-96.07,-0.98,-23.99,-231.47,132.69,414.90,26.77,1549.14,19.58,-127.05,51.14
16348,0.08,0.56,-0.06,65.49,0.18,12.02,-231.47,132.69,414.90,26.77,1550.39,18.71,-126.73,53.90
16372,0.16,1.41,-0.22,18.49,-4.70,-14.53,-231.47,132.69,414.90,26.77,1547.27,18.36,-126.92,55.45
16397,0.14,1.00,-0.04,-38.27,0.12,-0.43,-250.36,132.69,387.64,26.77,1548.55,17.76,-126.84,55.66
16423,0.12,1.06,-0.12,16.11,-0.55,0.98,-250.36,132.69,387.64,26.80,1546.35,17.16,-126.73,57.41
16447,0.10,1.03,-0.11,-17.40,-2.01,-6.29,-250.36,132.69,387.64,26.78,1548.74,16.77,-126.77,58.21
16471,0.13,1.06,-0.11,-5.19,-1.71,-0.92,-250.36,132.69,387.64,26.77,1549.93,16.23,-126.75,59.33
16496,0.13,1.09,-0.08,-16.78,-1.40,-1.16,-250.36,132.69,387.64,26.77,1549.41,15.72,-126.75,60.14
16520,0.14,1.05,-0.09,0.43,-1.40,0.67,-244.06,129.53,396.73,26.79,1549.57,15.13,-126.75,61.36
16546,0.12,1.05,-0.10,-8.67,-1.34,-1.22,-244.06,129.53,396.73,26.79,1547.81,14.60,-126.79,62.44
16570,0.12,1.04,-0.10,-3.54,-1.77,-0.43,-244.06,129.53,396.73,26.77,1546.96,14.10,-126.84,63.60
16595,0.13,1.09,-0.10,-6.65,-1.89,-5.00,-244.06,129.53,396.73,26.79,1549.59,13.70,-126.95,64.68
16619,0.14,1.09,-0.09,-6.35,-1.16,-2.44,-244.06,129.53,396.73,26.79,1548.70,13.25,-127.04,65.76
16643,0.14,1.04,-0.10,-3.42,-0.98,-0.85,-247.21,126.37,393.70,26.79,1548.09,12.78,-127.12,66.97
16669,0.13,1.09,-0.10,-10.13,-1.04,-1.95,-247.21,126.37,393.70,26.81,1549.25,12.34,-127.23,68.09
16694,0.13,1.07,-0.10,-0.92,-1.34,-1.83,-247.21,126.37,393.70,26.77,1547.85,11.93,-127.36,69.36
16718,0.14,1.09,-0.10,-5.43,-1.28,-2.81,-247.21,126.37,393.70,26.78,1549.04,11.56,-127.50,70.54
16742,0.14,1.06,-0.10,-1.65,-1.04,-2.62,-247.21,126.37,393.70,26.78,1546.44,11.20,-127.65,71.83
16767,0.13,1.07,-0.10,0.06,-0.98,-2.81,-240.91,123.21,378.56,26.79,1546.29,10.87,-127.80,73.19
16791,0.13,1.07,-0.10,-0.49,-1.04,-2.81,-240.91,123.21,378.56,26.82,1550.14,10.55,-127.96,74.55
16817,0.13,1.07,-0.11,3.17,-1.04,-2.44,-240.91,123.21,378.56,26.79,1549.77,10.23,-128.13,76.12
16841,0.20,1.18,-0.22,-88.26,15.01,-24.96,-240.91,123.21,378.56,26.78,1549.41,10.51,-128.01,75.47
16865,0.05,1.14,0.09,-153.87,-19.29,-32.96,-240.91,123.21,378.56,26.79,1550.91,10.93,-128.91,72.69
16890,0.08,1.03,-0.16,-35.58,-34.55,12.27,-237.76,139.01,411.87,26.79,1548.73,10.11,-129.76,73.07
16914,-0.00,1.19,0.16,45.90,187.99,-3.60,-237.76,139.01,411.87,26.79,1551.37,11.30,-125.51,75.93
16948,0.10,1.42,-0.20,0.31,40.47,-48.58,-237.76,139.01,411.87,26.82,1549.59,12.83,-124.60,78.13
16986,0.09,1.35,-0.20,66.47,-51.03,0.73,-237.76,139.01,411.87,26.78,1548.31,11.97,-126.58,82.54
17011,0.18,1.36,-0.38,66.89,-36.80,17.46,-242.49,146.91,395.21,26.79,1547.39,11.12,-127.42,85.62
17035,0.12,1.40,-0.43,90.70,4.33,35.52,-242.49,146.91,395.21,26.81,1547.97,10.07,-127.27,89.52
17059,0.06,1.42,-0.42,79.77,-65.73,52.12,-242.49,146.91,395.21,26.82,1549.04,8.78,-128.92,92.86
17090,0.06,1.22,-0.56,154.91,-223.39,63.54,-242.49,146.91,395.21,26.78,1550.73,7.58,-135.91,98.66
17114,0.09,1.30,-0.66,216.00,-151.31,50.05,-242.49,146.91,395.21,26.80,1549.62,7.27,-139.85,105.06
17138,0.08,1.33,-0.60,256.77,-98.02,62.07,-277.13,90.04,289.22,26.81,1548.83,6.69,-142.63,112.35
17163,0.08,1.19,-0.82,252.20,6.90,42.97,-277.13,90.04,289.22,26.80,1547.66,5.76,-142.90,119.59
17187,0.12,1.06,-0.81,237.12,-38.76,36.44,-277.13,90.04,289.22,26.80,1550.63,5.48,-144.12,126.18
17220,0.20,1.06,-0.90,179.75,-27.77,29.85,-277.13,90.04,289.22,26.79,1550.42,4.86,-145.40,132.99
17245,0.18,0.96,-0.96,108.22,-3.11,6.29,-234.62,60.03,139.31,26.80,1547.97,4.50,-145.40,135.62
17269,0.08,0.93,-0.97,106.81,-22.83,-33.94,-234.62,60.03,139.31,26.80,1548.98,5.68,-144.94,138.05
17294,0.24,0.76,-0.93,112.61,46.51,-6.53,-234.62,60.03,139.31,26.79,1548.95,4.22,-143.81,140.82
17318,0.19,0.70,-0.91,76.97,64.09,-11.84,-234.62,60.03,139.31,26.78,1548.73,2.91,-142.18,142.56
17342,0.43,0.73,-1.10,-1.53,-4.27,-29.30,-234.62,60.03,139.31,26.79,1551.86,2.37,-141.08,142.68
17368,0.15,0.77,-1.04,22.95,-55.66,-14.89,-214.15,64.76,86.31,26.80,1550.17,4.79,-140.36,142.87
17393,0.10,0.44,-0.91,-7.93,44.74,16.11,-214.15,64.76,86.31,26.79,1547.85,4.16,-139.08,143.60
17417,0.16,0.51,-1.01,-83.01,179.02,-54.26,-214.15,64.76,86.31,26.78,1550.69,1.85,-134.35,142.57
17441,0.54,0.80,-0.77,-43.40,106.81,-50.23,-214.15,64.76,86.31,26.82,1549.38,-0.40,-131.13,140.72
17466,0.36,0.67,-0.86,-170.53,134.16,-82.15,-214.15,64.76,86.31,26.79,1551.12,-2.02,-125.93,136.53
17492,0.25,0.68,-0.89,-346.80,271.61,-153.99,-256.66,22.11,169.59,26.79,1551.15,-4.05,-117.97,127.62
17516,0.35,0.83,-0.46,-352.42,314.64,-227.54,-256.66,22.11,169.59,26.80,1548.98,-4.60,-108.43,117.77
17540,0.18,1.11,-0.23,-407.53,301.27,-260.68,-256.66,22.11,169.59,26.80,1551.24,-1.33,-99.21,106.21
17565,0.29,1.07,-0.08,-425.72,276.86,-111.08,-256.66,22.11,169.59,26.77,1547.70,-1.20,-92.03,96.40
17589,0.20,0.82,-0.11,-273.25,194.58,-28.50,-256.66,22.11,169.59,26.79,1547.75,-1.32,-87.26,90.97
17615,0.27,0.95,-0.06,-181.09,188.72,-11.96,-285.00,135.85,490.61,26.78,1550.94,-1.58,-81.89,87.56
17639,0.23,0.83,0.28,-100.71,168.58,-10.31,-285.00,135.85,490.61,26.83,1549.62,-1.57,-77.32,85.24
17664,0.16,0.77,0.18,-63.78,108.89,-13.24,-285.00,135.85,490.61,26.78,1551.95,-1.47,-74.09,84.23
17688,0.16,0.77,-0.14,-129.03,137.51,41.14,-285.00,135.85,490.61,26.77,1551.55,-2.50,-70.12,82.47
17712,0.26,0.85,0.06,-150.70,249.08,-32.17,-285.00,135.85,490.61,26.77,1552.01,-1.51,-63.51,79.63
17739,0.04,0.75,0.21,-137.57,337.59,-37.48,-237.76,230.63,551.18,26.80,1549.93,1.26,-54.00,76.24
17763,0.01,0.75,0.17,-194.40,336.55,-55.42,-237.76,230.63,551.18,26.80,1550.63,4.69,-45.23,72.36
17787,-0.02,0.80,0.30,-248.78,398.68,-57.07,-237.76,230.63,551.18,26.78,1550.39,9.19,-35.23,67.50
17811,-0.16,0.79,0.53,-141.66,395.69,0.79,-237.76,230.63,551.18,26.79,1550.57,13.05,-25.05,65.46
17836,-0.25,0.79,1.00,82.58,145.26,155.64,-237.76,230.63,551.18,26.79,1550.69,10.90,-19.42,67.71
17862,-0.04,0.66,0.34,-20.69,-37.84,139.77,-196.82,372.79,511.81,26.79,1550.75,6.60,-17.34,67.08
17886,-0.00,0.74,0.38,-168.46,15.81,22.46,-196.82,372.79,511.81,26.81,1550.12,5.94,-15.25,62.84
17910,-0.04,0.73,0.47,-137.02,19.65,33.75,-196.82,372.79,511.81,26.78,1549.62,5.33,-12.97,59.19
17935,-0.03,0.62,0.50,-189.82,46.81,15.38,-196.82,372.79,511.81,26.76,1551.40,5.60,-10.46,54.10
17959,-0.07,0.66,0.47,-287.78,70.13,-28.26,-196.82,372.79,511.81,26.79,1548.22,7.40,-7.98,46.98
17985,-0.10,0.49,0.61,-189.82,69.64,-38.64,-100.77,387.01,586.01,26.79,1553.60,9.70,-6.34,41.05
18009,-0.08,0.46,0.61,-240.54,74.83,-56.64,-100.77,387.01,586.01,26.80,1549.10,12.02,-5.19,34.30
18034,-0.19,0.40,0.77,-238.77,90.76,-72.94,-100.77,387.01,586.01,26.78,1552.81,15.13,-4.72,27.28
18058,-0.03,0.48,0.61,-186.52,63.60,-87.10,-100.77,387.01,586.01,26.80,1553.48,16.45,-4.61,22.76
18082,-0.16,0.36,0.82,-174.32,108.58,-45.17,-100.77,387.01,586.01,26.80,1553.26,18.83,-3.54,17.76
18106,-0.25,0.12,0.76,-68.12,56.52,-28.14,40.94,450.19,561.78,26.78,1553.33,20.30,-3.68,14.39
18136,-0.22,0.22,0.68,-109.68,69.70,-39.98,40.94,450.19,561.78,26.80,1552.41,21.40,-2.63,11.43
18161,-0.35,0.27,0.91,-71.72,71.41,-8.24,40.94,450.19,561.78,26.81,1551.67,22.70,-1.03,11.06
18185,-0.34,0.35,0.91,-99.85,38.76,-0.98,40.94,450.19,561.78,26.79,1551.86,23.12,0.12,10.37
18209,-0.34,0.07,0.80,-92.10,14.95,-4.82,40.94,450.19,561.78,26.79,1551.58,23.49,-0.31,6.33
18233,-0.32,0.10,0.79,-26.98,85.75,-95.28,111.80,470.73,529.98,26.79,1554.42,25.00,-3.31,5.75
18259,-0.43,0.09,0.83,-128.30,83.74,-33.20,111.80,470.73,529.98,26.78,1551.58,28.26,-4.54,2.73
18284,-0.50,-0.01,0.84,-93.69,142.15,5.74,111.80,470.73,529.98,26.80,1552.01,32.56,-5.44,-0.20
18308,-0.54,-0.09,0.78,-81.18,131.71,15.50,111.80,470.73,529.98,26.77,1551.49,36.20,-6.60,-3.35
18332,-0.19,1.20,1.28,-25.57,113.34,61.95,111.80,470.73,529.98,26.80,1550.02,38.37,-3.89,-1.06
18357,-0.49,-0.00,0.64,29.97,85.51,58.17,118.09,518.12,466.38,26.77,1552.80,40.14,-3.29,1.12
18381,-0.60,0.01,0.65,18.80,124.39,60.55,118.09,518.12,466.38,26.81,1551.98,43.66,-2.26,2.84
18415,-0.64,0.04,0.56,4.64,212.71,3.72,118.09,518.12,466.38,26.78,1553.39,51.90,-2.34,3.65
18448,-0.83,0.10,0.66,39.73,226.62,24.48,118.09,518.12,466.38,26.79,1553.17,58.90,0.22,8.51
18472,-0.79,0.02,0.38,52.37,170.10,-31.98,118.09,518.12,466.38,26.80,1550.75,63.77,-1.15,8.69
18496,-0.75,0.17,0.34,28.26,207.15,-44.80,85.03,554.45,301.33,26.79,1550.17,68.99,0.26,11.33
18521,-0.82,0.12,0.35,33.57,217.29,-45.04,85.03,554.45,301.33,26.80,1553.17,73.60,1.20,13.50
18546,-0.88,-0.00,0.30,26.61,168.82,-63.66,85.03,554.45,301.33,26.80,1551.76,77.68,-6.73,6.41
18571,-0.98,0.06,0.28,23.07,119.02,-77.03,85.03,554.45,301.33,26.80,1552.44,79.88,-14.13,-0.14
18595,-0.87,0.09,0.37,-1.89,47.06,-62.81,85.03,554.45,301.33,26.80,1552.04,79.44,-19.17,-5.03
18619,-0.85,0.08,0.15,13.61,-29.42,-55.85,140.14,543.39,163.54,26.80,1553.69,78.54,-23.78,-8.88
18644,-0.80,-0.04,0.07,-40.65,78.49,69.21,140.14,543.39,163.54,26.78,1552.74,81.07,-18.09,-4.19
18670,-0.95,-0.05,0.15,-73.36,83.44,-5.80,140.14,543.39,163.54,26.78,1552.90,82.84,-27.32,-15.05
18694,-0.88,0.10,0.02,-84.78,96.50,-32.96,140.14,543.39,163.54,26.81,1551.61,85.26,-40.35,-29.83
18718,-0.95,0.03,-0.00,-44.25,125.24,-18.43,140.14,543.39,163.54,26.81,1552.59,87.07,-84.70,-75.00
18743,-0.94,-0.04,-0.07,42.79,29.72,-70.68,127.54,521.28,112.05,26.80,1553.66,85.09,-103.10,-92.22
18767,-0.91,0.00,-0.07,34.97,55.30,-54.50,127.54,521.28,112.05,26.81,1552.59,83.72,-117.70,-105.85
18793,-0.91,0.03,-0.06,-3.54,78.49,-36.07,127.54,521.28,112.05,26.80,1552.71,82.55,-133.07,-121.17
18817,-0.87,0.17,-0.35,5.13,147.03,18.80,127.54,521.28,112.05,26.80,1550.41,80.26,-159.34,-147.15
18842,-0.87,-0.06,-0.21,39.67,232.12,36.74,127.54,521.28,112.05,26.79,1553.17,75.29,-174.51,-160.99
18866,-0.83,-0.06,-0.20,75.20,211.61,-24.96,154.31,462.83,46.94,26.81,1553.23,71.44,-175.25,-159.34
18891,-0.78,-0.05,-0.26,41.08,151.00,-70.86,154.31,462.83,46.94,26.82,1552.74,68.85,-172.88,-155.64
18915,-0.81,-0.04,-0.38,1.83,133.97,-75.26,154.31,462.83,46.94,26.79,1551.33,66.51,-172.31,-154.79
18941,-0.79,-0.11,-0.50,-16.24,93.38,-29.11,154.31,462.83,46.94,26.80,1553.20,64.78,-172.87,-155.30
18965,-0.73,-0.11,-0.52,-14.28,101.32,-21.24,154.31,462.83,46.94,26.80,1552.37,63.16,-174.24,-156.48
18990,-0.68,-0.09,-0.53,0.92,79.16,-43.64,196.82,360.16,-27.26,26.78,1553.16,61.89,-173.61,-155.07
19014,-0.62,-0.17,-0.66,29.60,176.51,-16.11,196.82,360.16,-27.26,26.79,1551.97,58.00,-176.06,-155.28
19039,-0.68,-0.08,-0.56,38.39,197.20,-62.62,196.82,360.16,-27.26,26.79,1549.92,54.02,-177.44,-154.98
19065,-0.59,-0.14,-0.61,1.71,131.23,-25.45,196.82,360.16,-27.26,26.82,1555.95,51.55,-179.07,-155.67
19089,-0.51,-0.25,-0.62,-35.58,109.86,-14.04,196.82,360.16,-27.26,26.79,1552.21,49.52,-180.11,-156.62
19113,-0.46,-0.18,-0.67,-13.98,96.62,-63.96,222.02,252.74,-60.57,26.79,1554.05,46.97,-179.74,-155.98
19138,-0.47,-0.11,-0.67,-12.27,51.57,-57.80,222.02,252.74,-60.57,26.80,1552.09,45.68,-179.23,-155.44
19162,-0.41,-0.10,-0.72,-29.79,37.11,-27.59,222.02,252.74,-60.57,26.79,1550.90,44.87,-179.63,-156.07
19193,-0.45,-0.24,-0.76,-47.55,42.85,-8.00,222.02,252.74,-60.57,26.81,1552.98,43.88,-180.50,-157.35
19217,-0.36,-0.18,-0.73,-29.36,39.00,-14.28,204.70,194.29,-77.23,26.79,1552.21,42.89,-181.14,-157.95
19241,-0.43,-0.09,-0.81,-31.19,59.63,-8.79,204.70,194.29,-77.23,26.81,1549.34,41.60,177.63,-159.18
19266,-0.39,-0.14,-0.83,-25.57,52.86,-14.53,204.70,194.29,-77.23,26.82,1551.33,40.30,176.77,-159.94
19290,-0.36,-0.09,-0.80,-29.66,68.30,3.30,204.70,194.29,-77.23,26.81,1550.07,38.80,175.18,-161.34
19316,-0.24,-0.10,-0.87,-55.85,31.49,12.57,204.70,194.29,-77.23,26.77,1554.91,37.92,173.66,-163.40
19341,-0.33,-0.19,-1.01,-50.90,64.45,45.72,176.36,156.38,-80.25,26.81,1553.13,36.46,171.07,-165.80
19365,-0.33,0.07,-0.72,-63.72,106.87,59.02,176.36,156.38,-80.25,26.81,1551.14,34.23,167.72,-169.20
19389,-0.24,-0.08,-0.89,-25.09,113.95,65.19,176.36,156.38,-80.25,26.81,1549.95,31.45,164.55,-171.20
19413,-0.24,-0.16,-0.94,-19.59,93.51,50.48,176.36,156.38,-80.25,26.80,1554.17,29.05,162.10,-172.48
19439,-0.24,-0.03,-0.79,7.45,65.98,-2.20,176.36,156.38,-80.25,26.80,1555.27,27.11,161.08,-172.48
19464,-0.13,0.06,-0.95,-8.48,9.89,-4.58,154.31,99.52,-77.23,26.81,1552.15,26.29,160.22,-173.01
19488,-0.15,-0.09,-1.01,-32.84,5.55,12.39,154.31,99.52,-77.23,26.80,1551.29,25.61,159.04,-174.03
19512,-0.14,-0.05,-0.94,-23.44,52.55,13.55,154.31,99.52,-77.23,26.79,1553.01,23.77,157.68,-174.93
19537,-0.15,-0.04,-0.88,-17.46,41.08,-1.89,154.31,99.52,-77.23,26.81,1552.91,22.21,156.76,-175.50
19563,-0.12,-0.01,-0.91,-17.15,25.57,-7.45,154.31,99.52,-77.23,26.79,1551.20,20.89,155.97,-176.06
19587,-0.13,0.05,-0.94,1.40,16.66,-8.73,157.46,67.92,-68.14,26.78,1553.62,19.82,155.11,-176.29
19611,-0.12,0.04,-0.97,-18.55,0.43,-6.04,157.46,67.92,-68.14,26.81,1551.84,19.14,154.22,-176.99
19636,0.00,-0.07,-0.91,-15.87,53.34,1.71,157.46,67.92,-68.14,26.78,1554.35,16.99,153.22,-177.43
19660,-0.09,-0.03,-0.95,14.34,22.09,-13.31,157.46,67.92,-68.14,26.81,1551.60,15.75,152.52,-177.11
19686,-0.07,-0.00,-0.97,10.62,12.51,-9.83,157.46,67.92,-68.14,26.81,1553.13,14.67,151.68,-176.97
19710,-0.09,-0.01,-0.98,9.77,7.51,-13.06,173.21,61.61,-74.20,26.77,1553.00,13.77,150.90,-176.87
19735,-0.09,-0.01,-0.98,5.74,13.24,-10.25,173.21,61.61,-74.20,26.80,1551.60,12.76,150.03,-176.90
19759,-0.05,-0.03,-0.94,-23.13,23.62,10.31,173.21,61.61,-74.20,26.78,1552.85,11.46,148.66,-177.70
19783,-0.08,-0.07,-0.94,0.92,43.58,8.54,173.21,61.61,-74.20,26.83,1555.03,9.73,147.31,-177.76
19807,-0.02,-0.11,-0.99,-12.82,20.26,8.73,173.21,61.61,-74.20,26.78,1553.25,8.50,146.02,-178.06
19833,-0.02,-0.05,-1.01,-19.04,1.46,-3.60,154.31,39.49,-71.17,26.82,1553.92,7.56,144.85,-178.70
19873,-0.02,-0.09,-0.88,6.71,-1.16,-10.68,154.31,39.49,-71.17,26.82,1550.96,6.25,143.36,-178.31
19898,-0.02,-0.09,-0.96,13.37,8.61,-5.98,154.31,39.49,-71.17,26.81,1552.95,5.23,142.27,-177.96
19922,-0.03,-0.05,-0.94,-5.31,19.29,1.04,154.31,39.49,-71.17,26.81,1551.66,4.02,140.97,-178.21
19946,-0.01,-0.03,-0.93,-9.83,13.98,-1.59,154.31,39.49,-71.17,26.81,1552.06,2.92,139.74,-178.62
19972,-0.01,-0.09,-0.96,-13.55,8.91,-3.91,163.76,36.33,-56.03,26.81,1551.11,2.08,138.42,-178.88
19997,0.00,-0.09,-0.93,2.93,2.01,-7.08,163.76,36.33,-56.03,26.82,1552.64,1.45,137.25,-178.71
20021,0.01,-0.06,-0.94,7.45,4.58,-8.42,163.76,36.33,-56.03,26.83,1554.23,0.77,136.10,-178.52
20045,-0.00,-0.03,-0.97,-1.04,10.01,-4.88,163.76,36.33,-56.03,26.82,1553.55,0.02,134.82,-178.66
20069,-0.01,-0.10,-1.01,-10.62,17.64,0.18,163.76,36.33,-56.03,26.81,1549.88,-0.86,133.39,-178.80
20095,0.00,-0.08,-0.92,-4.64,13.18,-8.73,171.63,25.27,-57.54,26.81,1551.32,-1.69,131.98,-178.82
20120,0.03,-0.07,-0.93,-4.94,5.31,-12.57,171.63,25.27,-57.54,26.80,1554.38,-2.35,130.77,-178.90
20144,0.03,-0.09,-0.95,5.37,8.48,-8.85,171.63,25.27,-57.54,26.81,1553.65,-3.01,129.44,-178.60
20168,0.02,-0.09,-0.96,2.32,7.45,-5.86,171.63,25.27,-57.54,26.80,1555.85,-3.56,128.01,-178.40
20192,0.02,-0.11,-0.97,8.00,0.37,-17.15,171.63,25.27,-57.54,26.81,1550.86,-3.91,126.83,-178.01
20217,0.03,-0.07,-0.96,18.25,5.25,-17.15,177.93,28.43,-51.48,26.79,1551.78,-4.34,125.64,-177.50
20247,0.04,-0.09,-0.93,0.24,8.36,-7.69,177.93,28.43,-51.48,26.80,1552.39,-4.92,123.84,-177.35
20271,0.05,-0.09,-0.96,1.34,9.40,-8.30,177.93,28.43,-51.48,26.80,1553.43,-5.39,122.41,-177.20
20296,0.04,-0.10,-0.96,4.94,2.20,-11.23,177.93,28.43,-51.48,26.81,1553.59,-5.60,121.03,-176.93
20320,0.05,-0.09,-0.93,2.14,-3.17,-14.53,177.93,28.43,-51.48,26.78,1550.77,-5.74,119.73,-176.77
20344,0.05,-0.09,-0.87,-3.78,-2.08,-16.48,184.23,15.80,-33.31,26.83,1551.01,-5.67,118.43,-176.67
20370,0.02,0.00,-0.98,2.14,-14.77,-24.29,184.23,15.80,-33.31,26.80,1551.75,-5.06,117.40,-177.10
20395,0.03,-0.10,-1.03,-34.18,-4.39,-12.76,184.23,15.80,-33.31,26.80,1551.28,-4.82,116.04,-177.76
20419,0.07,-0.19,-0.93,-55.36,15.32,10.62,184.23,15.80,-33.31,26.80,1552.11,-5.37,114.24,-178.24
20443,0.08,-0.13,-0.99,-5.43,-0.49,-9.95,184.23,15.80,-33.31,26.82,1553.07,-5.52,112.88,-177.79
20468,0.04,-0.09,-0.96,-15.69,2.75,-4.21,171.63,12.64,-42.40,26.84,1553.37,-5.52,111.36,-177.87
20493,0.03,-0.07,-0.95,-12.15,-2.44,-7.39,171.63,12.64,-42.40,26.82,1553.61,-5.35,109.89,-178.00
20518,0.03,-0.08,-0.95,-12.27,-0.85,-4.39,171.63,12.64,-42.40,26.79,1552.42,-5.20,108.48,-178.02
20542,0.01,-0.01,-0.94,-10.74,1.71,-4.88,171.63,12.64,-42.40,26.83,1551.23,-4.99,107.19,-178.52
20566,0.03,-0.04,-0.93,-15.38,0.31,-10.50,171.63,12.64,-42.40,26.80,1552.11,-4.89,106.04,-178.81
20591,0.15,-0.08,-0.80,-14.10,-6.10,-14.34,155.89,-6.32,-57.54,26.80,1551.56,-5.58,105.65,-178.73
20617,0.03,-0.20,-0.97,-28.99,-7.32,12.70,155.89,-6.32,-57.54,26.83,1552.57,-5.19,104.54,-178.33
20641,0.09,-0.08,-0.97,-7.75,8.24,4.21,155.89,-6.32,-57.54,26.82,1551.68,-5.60,103.74,-178.16
20665,0.07,-0.00,-0.98,-2.93,7.87,-7.69,155.89,-6.32,-57.54,26.83,1551.99,-5.82,103.32,-178.46
20689,0.06,-0.01,-0.94,-7.39,-1.34,-13.55,155.89,-6.32,-57.54,26.82,1552.33,-5.73,103.08,-178.79
20714,0.06,-0.05,-0.90,-7.32,11.78,-7.14,165.33,0.00,-69.65,26.82,1552.23,-6.05,102.56,-178.76
20738,0.06,-0.09,-0.99,-2.01,4.64,-11.29,165.33,0.00,-69.65,26.83,1551.96,-6.12,102.17,-178.41
20764,-0.35,-0.16,-1.02,-7.75,-27.89,-24.23,165.33,0.00,-69.65,26.83,1552.63,-3.77,102.38,-178.18
20788,0.03,-0.08,-0.89,-20.94,-5.80,-14.77,165.33,0.00,-69.65,26.83,1549.60,-3.71,102.04,-178.37
20812,0.05,-0.08,-0.94,-12.45,-10.19,-16.48,165.33,0.00,-69.65,26.81,1550.24,-3.66,101.77,-178.34
20837,0.06,-0.07,-0.92,-13.18,-12.39,-17.03,165.33,-3.16,-51.48,26.82,1552.72,-3.59,101.50,-178.39
20861,0.09,-0.04,-0.92,-17.64,-11.84,-14.10,165.33,-3.16,-51.48,26.80,1551.28,-3.72,101.20,-178.75
20887,0.04,-0.07,-1.02,-4.58,5.07,-10.25,165.33,-3.16,-51.48,26.80,1553.12,-3.86,100.76,-178.52
20911,0.05,-0.09,-0.97,-8.00,6.77,-7.32,165.33,-3.16,-51.48,26.82,1551.19,-4.06,100.31,-178.29
20935,0.05,-0.01,-0.95,-9.52,-5.00,-14.89,165.33,-3.16,-51.48,26.78,1552.20,-3.99,100.10,-178.68
20960,0.05,-0.02,-0.95,-22.09,-14.95,-14.16,138.56,-7.90,-53.00,26.83,1550.58,-3.67,100.08,-179.25
20984,0.08,-0.07,-0.92,-21.61,-16.30,-11.60,138.56,-7.90,-53.00,26.82,1551.41,-3.54,99.97,-179.44
21010,0.04,-0.02,-0.99,-4.94,-7.57,-6.10,138.56,-7.90,-53.00,26.84,1552.54,-3.38,99.73,-179.54
21034,-0.01,-0.06,-1.01,-21.18,-10.19,1.04,138.56,-7.90,-53.00,26.82,1551.28,-2.85,99.34,-179.75
21058,0.08,-0.04,-0.94,-15.81,3.30,2.01,138.56,-7.90,-53.00,26.81,1551.74,-3.29,98.94,-179.90
21083,0.06,-0.08,-0.93,-7.69,6.53,-4.15,124.39,9.48,-54.51,26.81,1554.28,-3.82,98.31,-179.57
21107,0.03,-0.06,-0.97,-0.79,4.33,-10.38,124.39,9.48,-54.51,26.82,1551.50,-3.97,97.86,-179.27
