millis,ax,ay,az,gx,gy,gz,mx,my,mz,temp,alt,pitch,yaw,roll
13821,-0.00,0.00,-1.00,0.00,-0.24,-0.06,297.60,317.51,-36.34,26.19,1553.36,-8.76,-168.81,2.80
13844,-0.00,0.00,-1.00,0.00,-0.18,0.00,297.60,317.51,-36.34,26.19,1550.81,-9.05,-168.25,2.89
13868,0.00,0.00,-1.00,0.00,-0.12,0.12,297.60,317.51,-36.34,26.21,1552.12,-9.35,-167.69,2.98
13891,-0.00,0.00,-1.00,0.00,-0.24,0.06,297.60,317.51,-36.34,26.19,1553.33,-9.66,-167.12,3.08
13915,-0.00,0.00,-1.00,0.00,-0.18,-0.06,297.60,317.51,-36.34,26.20,1552.20,-9.98,-166.56,3.18
13939,-0.00,0.00,-1.00,0.00,-0.18,0.00,300.75,326.98,-21.20,26.18,1552.98,-10.37,-165.99,3.29
13964,-0.00,0.00,-1.00,-0.06,-0.24,0.00,300.75,326.98,-21.20,26.20,1550.90,-10.79,-165.38,3.42
13987,-0.00,0.00,-1.00,0.06,-0.31,0.06,300.75,326.98,-21.20,26.21,1552.48,-11.21,-164.81,3.54
14011,-0.00,0.01,-1.01,-0.06,-0.18,-0.06,300.75,326.98,-21.20,26.20,1550.56,-11.65,-164.24,3.67
14035,-0.00,0.00,-1.00,0.00,-0.18,0.12,300.75,326.98,-21.20,26.20,1550.37,-12.10,-163.66,3.80
14058,-0.00,0.00,-1.00,0.00,-0.24,0.12,300.75,326.98,-15.14,26.18,1551.31,-12.60,-163.07,3.94
14084,-0.00,0.00,-1.00,0.00,-0.18,0.00,300.75,326.98,-15.14,26.20,1550.64,-13.15,-162.45,4.10
14107,0.00,0.00,-1.00,-0.12,-0.12,0.06,300.75,326.98,-15.14,26.21,1550.48,-13.69,-161.87,4.25
14131,-0.00,0.00,-1.00,0.00,-0.24,0.00,300.75,326.98,-15.14,26.22,1553.35,-14.26,-161.29,4.40
14154,-0.00,0.00,-1.01,0.00,-0.18,-0.18,300.75,326.98,-15.14,26.21,1551.27,-14.85,-160.71,4.57
14178,-0.00,0.00,-1.00,0.06,-0.18,0.06,308.62,331.72,-28.77,26.24,1550.47,-15.43,-160.11,4.73
14202,-0.00,0.00,-1.00,0.06,-0.18,0.12,308.62,331.72,-28.77,26.21,1548.15,-16.04,-159.52,4.90
14227,-0.00,0.00,-1.00,0.00,-0.12,-0.06,308.62,331.72,-28.77,26.23,1551.82,-16.72,-158.89,5.09
14251,-0.00,0.00,-1.00,0.06,-0.18,0.06,308.62,331.72,-28.77,26.24,1551.93,-17.38,-158.29,5.28
14274,-0.00,0.00,-1.00,0.00,-0.18,-0.06,308.62,331.72,-28.77,26.22,1553.92,-18.07,-157.70,5.47
14298,-0.00,0.00,-1.00,0.00,-0.18,0.12,307.05,323.82,-21.20,26.22,1551.71,-18.82,-157.11,5.68
14322,-0.00,0.00,-1.00,0.00,-0.12,0.00,307.05,323.82,-21.20,26.20,1548.96,-19.60,-156.52,5.89
14351,-0.00,0.00,-1.00,0.00,-0.18,0.06,307.05,323.82,-21.20,26.23,1552.91,-20.61,-155.78,6.16
14375,0.00,0.00,-1.00,-0.06,-0.06,0.00,307.05,323.82,-21.20,26.23,1550.65,-21.46,-155.21,6.39
14399,0.00,0.00,-1.01,-0.12,-0.24,0.06,307.05,323.82,-21.20,26.22,1551.53,-22.35,-154.64,6.63
14423,-0.00,0.00,-1.00,0.00,-0.18,0.00,303.90,320.66,-36.34,26.21,1550.15,-23.24,-154.06,6.87
14446,-0.00,-0.00,-1.01,0.00,-0.18,0.06,303.90,320.66,-36.34,26.21,1549.76,-24.16,-153.50,7.12
14471,-0.00,0.00,-1.00,0.00,-0.24,-0.06,303.90,320.66,-36.34,26.23,1550.58,-25.18,-152.90,7.40
14495,-0.00,0.00,-1.00,0.00,-0.18,-0.06,303.90,320.66,-36.34,26.22,1550.79,-26.17,-152.37,7.67
14519,-0.00,0.00,-1.00,-0.06,-0.18,-0.12,303.90,320.66,-36.34,26.22,1551.22,-27.20,-151.84,7.96
14542,-0.00,0.00,-1.00,-0.12,-0.18,0.00,311.77,319.09,-19.69,26.21,1549.99,-28.32,-151.33,8.28
14566,-0.00,0.00,-1.00,0.00,-0.12,-0.06,311.77,319.09,-19.69,26.21,1549.10,-29.46,-150.85,8.61
14590,-0.00,0.00,-1.00,0.00,-0.24,0.00,311.77,319.09,-19.69,26.23,1551.82,-30.65,-150.39,8.95
14615,-0.00,0.00,-1.00,0.00,-0.12,0.06,311.77,319.09,-19.69,26.22,1552.16,-31.95,-149.91,9.34
14639,-0.00,0.00,-1.00,0.06,-0.24,0.06,311.77,319.09,-19.69,26.20,1552.28,-33.21,-149.50,9.72
14663,-0.00,0.00,-1.00,-0.06,-0.12,0.06,303.90,311.19,-30.28,26.24,1551.88,-34.48,-149.10,10.12
14686,0.00,0.00,-1.00,0.00,-0.18,0.06,303.90,311.19,-30.28,26.23,1551.18,-35.79,-148.73,10.54
14710,0.00,0.00,-1.00,0.00,-0.12,0.00,303.90,311.19,-30.28,26.22,1550.05,-37.12,-148.40,10.97
14735,-0.00,0.00,-1.01,-0.06,-0.12,0.00,303.90,311.19,-30.28,26.24,1551.39,-38.57,-148.08,11.46
14768,-0.00,0.00,-1.00,0.00,-0.06,0.00,303.90,311.19,-30.28,26.23,1553.99,-40.51,-147.73,12.15
14799,0.00,0.00,-1.00,-0.06,-0.18,0.00,302.32,315.93,-25.74,26.23,1550.02,-42.34,-147.50,12.83
14822,0.00,0.00,-1.00,0.06,-0.24,0.00,302.32,315.93,-25.74,26.23,1549.80,-43.79,-147.38,13.41
14846,-0.00,0.00,-1.00,0.00,-0.18,0.00,302.32,315.93,-25.74,26.22,1550.93,-45.25,-147.32,14.02
14871,-0.00,0.00,-1.00,0.00,-0.12,-0.06,302.32,315.93,-25.74,26.21,1553.38,-46.82,-147.32,14.72
14895,0.00,0.00,-1.00,-0.06,-0.12,0.06,302.32,315.93,-25.74,26.21,1549.43,-48.31,-147.38,15.41
14919,-0.00,0.00,-1.00,0.06,-0.18,0.06,314.92,319.09,-19.69,26.23,1552.82,-49.81,-147.52,16.18
14943,0.00,0.00,-1.00,-0.06,-0.18,0.06,314.92,319.09,-19.69,26.21,1552.67,-51.31,-147.73,17.00
14967,0.00,0.00,-1.00,-0.06,-0.12,-0.06,314.92,319.09,-19.69,26.23,1550.71,-52.81,-148.04,17.89
14990,-0.00,0.00,-1.00,-0.06,-0.06,0.06,314.92,319.09,-19.69,26.21,1551.63,-54.30,-148.43,18.84
15016,-0.00,0.00,-1.01,-0.06,-0.18,0.18,314.92,319.09,-19.69,26.22,1550.13,-55.90,-148.94,19.95
15040,0.00,0.00,-1.00,-0.06,-0.24,0.00,311.77,331.72,-22.71,26.21,1549.73,-57.41,-149.55,21.08
15063,-0.00,0.00,-1.00,0.06,-0.18,0.06,311.77,331.72,-22.71,26.22,1551.87,-58.88,-150.27,22.30
15087,-0.00,0.00,-1.00,0.06,-0.18,0.12,311.77,331.72,-22.71,26.25,1548.97,-60.35,-151.13,23.65
15111,0.00,0.00,-1.00,0.06,-0.24,0.06,311.77,331.72,-22.71,26.24,1550.31,-61.81,-152.14,25.13
15136,-0.00,0.00,-1.00,0.00,-0.24,0.06,311.77,331.72,-22.71,26.23,1550.95,-63.35,-153.40,26.89
15160,0.00,0.00,-1.00,0.06,-0.18,0.06,303.90,317.51,-27.26,26.21,1550.49,-64.77,-154.80,28.74
15184,0.00,0.00,-1.00,0.00,-0.12,0.00,303.90,317.51,-27.26,26.24,1548.81,-66.15,-156.40,30.78
15207,0.00,0.00,-1.00,-0.06,-0.06,0.06,303.90,317.51,-27.26,26.25,1552.84,-67.49,-158.25,33.05
15231,0.00,0.00,-1.00,0.06,-0.12,0.00,303.90,317.51,-27.26,26.22,1552.75,-68.79,-160.40,35.61
15256,0.00,0.00,-1.01,-0.06,-0.12,0.06,303.90,317.51,-27.26,26.25,1552.05,-70.14,-163.06,38.69
15280,-0.00,0.00,-1.00,0.00,-0.12,0.06,302.32,322.24,-28.77,26.24,1549.94,-71.35,-165.99,42.00
15304,-0.00,0.00,-1.00,0.00,-0.18,0.00,302.32,322.24,-28.77,26.25,1553.21,-72.48,-169.33,45.72
15328,-0.00,0.00,-1.01,0.00,-0.12,0.00,302.32,322.24,-28.77,26.24,1552.66,-73.52,-173.16,49.91
15351,0.00,0.01,-1.00,0.06,-0.06,-0.06,302.32,322.24,-28.77,26.22,1551.47,-74.46,-177.53,54.62
15375,-0.00,0.00,-1.00,-0.06,-0.12,0.00,302.32,322.24,-28.77,26.27,1550.95,-75.29,177.52,59.91
15405,-0.00,0.00,-1.00,0.12,-0.12,0.12,297.60,326.98,-21.20,26.25,1551.59,-76.15,170.42,67.41
15429,-0.00,0.00,-1.00,0.06,-0.12,0.12,297.60,326.98,-21.20,26.26,1549.30,-76.64,164.20,73.94
15452,-0.00,0.01,-1.00,0.00,-0.12,0.06,297.60,326.98,-21.20,26.24,1554.49,-76.95,157.56,80.88
15476,-0.00,0.00,-1.01,0.00,-0.12,0.12,297.60,326.98,-21.20,26.24,1551.28,-77.07,150.72,88.01
15500,-0.00,0.00,-1.00,0.06,-0.18,0.06,297.60,326.98,-21.20,26.26,1549.90,-76.98,143.84,95.17
15525,0.00,0.00,-1.00,-0.06,-0.18,0.06,299.17,325.40,-34.83,26.27,1552.60,-76.68,136.63,102.69
15549,-0.00,0.00,-1.00,0.00,-0.18,0.06,299.17,325.40,-34.83,26.24,1553.85,-76.21,130.32,109.27
15573,-0.00,0.00,-1.00,-0.06,-0.12,0.00,299.17,325.40,-34.83,26.26,1551.10,-75.58,124.53,115.33
15597,0.00,0.01,-1.00,0.00,-0.18,0.00,299.17,325.40,-34.83,26.25,1551.07,-74.80,119.28,120.84
15620,0.00,0.01,-1.00,-0.06,-0.12,0.06,299.17,325.40,-34.83,26.27,1551.16,-73.91,114.60,125.78
15646,-0.00,0.00,-1.00,0.06,-0.12,0.00,299.17,325.40,-34.83,26.25,1550.51,-72.84,110.15,130.49
15669,0.00,0.00,-1.00,-0.06,-0.06,0.18,299.17,328.56,-25.74,26.25,1551.61,-71.75,106.43,134.45
15693,-0.00,0.00,-1.00,0.12,-0.06,0.00,299.17,328.56,-25.74,26.27,1550.73,-70.59,103.18,137.94
15717,-0.00,0.00,-1.00,0.00,-0.12,0.06,299.17,328.56,-25.74,26.26,1550.33,-69.38,100.29,141.05
15741,0.00,0.00,-1.00,0.06,-0.12,-0.12,299.17,328.56,-25.74,26.26,1549.81,-68.12,97.74,143.82
15764,0.00,0.00,-1.00,0.00,-0.18,0.00,299.17,328.56,-25.74,26.26,1550.97,-66.81,95.44,146.33
15790,-0.00,0.00,-1.00,0.06,-0.18,0.06,296.02,312.77,-34.83,26.25,1549.53,-65.38,93.26,148.74
15814,-0.00,0.00,-1.01,0.06,-0.12,0.00,296.02,312.77,-34.83,26.26,1552.28,-64.01,91.45,150.76
15837,0.00,0.00,-1.00,0.00,-0.24,0.06,296.02,312.77,-34.83,26.27,1550.29,-62.62,89.81,152.60
15861,0.00,0.01,-1.00,0.06,-0.12,0.06,296.02,312.77,-34.83,26.24,1551.61,-61.21,88.32,154.28
15885,-0.00,0.00,-1.00,0.00,-0.24,0.00,296.02,312.77,-34.83,26.26,1551.52,-59.78,86.94,155.84
15910,0.00,0.00,-1.00,0.00,-0.06,0.00,318.07,312.77,-31.80,26.26,1550.08,-58.24,85.60,157.38
15934,-0.00,0.00,-1.00,0.06,-0.18,0.00,318.07,312.77,-31.80,26.27,1552.71,-56.79,84.45,158.70
15957,0.00,0.00,-1.00,0.00,-0.18,0.00,318.07,312.77,-31.80,26.24,1552.47,-55.32,83.38,159.93
15981,0.00,0.00,-1.00,0.00,-0.18,0.06,318.07,312.77,-31.80,26.24,1550.53,-53.85,82.38,161.09
16005,-0.00,0.00,-1.00,0.00,-0.24,0.12,318.07,312.77,-31.80,26.24,1549.29,-52.37,81.42,162.18
16029,0.00,0.00,-1.00,0.06,-0.12,-0.06,311.77,319.09,-31.80,26.24,1550.93,-50.87,80.50,163.23
16054,0.00,0.00,-1.00,-0.06,-0.12,0.00,311.77,319.09,-31.80,26.28,1551.73,-49.27,79.56,164.30
16078,0.00,0.01,-1.01,0.00,-0.12,0.00,311.77,319.09,-31.80,26.23,1551.24,-47.77,78.72,165.23
16101,0.00,0.00,-1.00,-0.06,-0.06,0.12,311.77,319.09,-31.80,26.27,1551.24,-46.28,77.90,166.13
16125,0.00,0.00,-1.01,-0.06,-0.12,0.06,311.77,319.09,-31.80,26.25,1549.86,-44.77,77.10,166.99
16149,-0.00,0.00,-1.00,-0.06,-0.12,-0.06,299.17,319.09,-37.86,26.26,1554.84,-43.25,76.32,167.83
16197,-0.00,0.00,-1.00,0.12,-0.24,0.12,299.17,319.09,-37.86,26.24,1551.86,-40.16,74.81,169.41
16221,-0.00,0.00,-1.00,0.00,-0.12,0.18,299.17,319.09,-37.86,26.26,1550.33,-38.62,74.04,170.17
16245,-0.00,0.00,-1.00,0.06,-0.18,0.00,299.17,319.09,-37.86,26.26,1551.06,-37.11,73.31,170.87
16269,-0.00,0.00,-1.00,0.00,-0.24,0.00,305.47,331.72,-37.86,26.25,1552.40,-35.59,72.55,171.57
16293,-0.00,0.00,-1.00,0.00,-0.06,0.00,305.47,331.72,-37.86,26.26,1550.57,-34.09,71.80,172.22
16318,-0.00,0.00,-1.00,0.06,-0.24,0.06,305.47,331.72,-37.86,26.27,1551.06,-32.49,71.00,172.90
16342,-0.00,0.00,-1.01,0.00,-0.24,0.12,305.47,331.72,-37.86,26.27,1550.72,-30.99,70.24,173.51
16365,-0.00,0.00,-1.00,0.06,-0.18,0.12,305.47,331.72,-37.86,26.26,1552.58,-29.49,69.48,174.09
16389,-0.00,0.00,-1.00,-0.06,-0.06,0.06,303.90,333.30,-36.34,26.26,1548.76,-28.00,68.69,174.65
16413,-0.00,0.00,-1.00,0.00,-0.12,0.00,303.90,333.30,-36.34,26.27,1550.60,-26.52,67.90,175.18
16436,-0.00,0.00,-1.00,0.00,-0.12,0.06,303.90,333.30,-36.34,26.27,1550.16,-25.06,67.10,175.69
16466,0.00,0.00,-1.00,-0.06,-0.18,0.00,303.90,333.30,-36.34,26.25,1554.02,-23.23,66.08,176.28
16490,-0.00,0.00,-1.00,0.06,-0.18,0.00,303.90,333.30,-36.34,26.28,1552.64,-21.79,65.25,176.73
16513,-0.00,0.00,-1.01,0.06,-0.18,0.12,300.75,336.46,-30.28,26.26,1551.63,-20.36,64.36,177.16
16537,-0.00,0.01,-1.00,0.06,-0.12,0.12,300.75,336.46,-30.28,26.24,1552.79,-18.95,63.47,177.55
16561,-0.00,0.00,-1.00,0.00,-0.24,0.06,300.75,336.46,-30.28,26.26,1551.82,-17.56,62.55,177.92
16593,-0.00,0.00,-1.00,0.00,-0.06,0.00,300.75,336.46,-30.28,26.28,1550.44,-15.67,61.26,178.37
16617,0.00,0.00,-1.00,0.06,-0.12,0.00,300.75,336.46,-30.28,26.28,1548.85,-14.34,60.28,178.67
16641,-0.00,0.00,-1.00,0.00,-0.24,0.00,307.05,304.87,-24.23,26.28,1550.56,-12.92,59.41,178.91
16664,-0.00,0.00,-1.00,-0.06,-0.12,-0.06,307.05,304.87,-24.23,26.28,1549.40,-11.54,58.52,179.12
16688,-0.00,0.00,-1.00,-0.06,-0.18,0.00,307.05,304.87,-24.23,26.29,1553.56,-10.18,57.58,179.34
16713,-0.00,0.00,-1.00,0.00,-0.24,0.06,307.05,304.87,-24.23,26.27,1554.17,-8.77,56.54,179.53
16737,-0.00,0.00,-1.01,0.00,-0.24,0.06,307.05,304.87,-24.23,26.29,1552.45,-7.49,55.53,179.68
16761,-0.00,0.00,-1.00,-0.06,-0.24,0.06,300.75,311.19,-24.23,26.25,1553.06,-6.30,54.38,179.81
16785,0.00,0.00,-1.00,0.00,-0.12,0.06,300.75,311.19,-24.23,26.27,1553.86,-5.19,53.20,179.93
16808,0.00,0.01,-1.00,0.00,-0.06,-0.12,300.75,311.19,-24.23,26.27,1548.69,-4.16,51.99,179.95
16832,-0.00,0.01,-1.00,0.00,-0.12,0.12,300.75,311.19,-24.23,26.25,1552.73,-3.20,50.75,179.97
16857,-0.00,0.00,-1.01,0.00,-0.18,0.06,300.75,311.19,-24.23,26.29,1552.73,-2.31,49.41,179.99
16881,-0.00,0.00,-1.00,0.06,-0.12,0.00,300.75,311.19,-24.23,26.29,1549.73,-1.61,48.19,179.99
16904,-0.00,0.00,-1.00,-0.06,-0.18,0.00,300.75,317.51,-15.14,26.27,1551.19,-1.07,46.93,179.97
16928,-0.00,0.00,-1.00,-0.06,-0.12,0.06,300.75,317.51,-15.14,26.30,1554.22,-0.68,45.81,179.92
16952,-0.00,0.00,-1.00,0.00,-0.18,0.00,300.75,317.51,-15.14,26.28,1554.68,-0.41,44.84,179.91
16977,0.00,0.00,-1.00,-0.06,-0.18,0.06,300.75,317.51,-15.14,26.28,1552.63,-0.26,44.00,179.87
17000,0.00,0.00,-1.00,0.00,-0.18,0.00,300.75,317.51,-15.14,26.27,1551.71,-0.17,43.38,179.90
17024,-0.00,0.00,-1.00,-0.06,-0.24,0.06,302.32,341.20,-25.74,26.28,1548.05,-0.12,42.45,179.89
17048,-0.00,0.00,-1.00,0.00,-0.18,-0.06,302.32,341.20,-25.74,26.28,1549.18,-0.09,41.71,179.90
17072,-0.00,0.00,-1.01,0.00,-0.12,0.06,302.32,341.20,-25.74,26.29,1550.06,-0.05,41.14,179.87
17095,0.00,0.00,-1.00,0.06,-0.12,0.00,302.32,341.20,-25.74,26.28,1551.84,-0.05,40.71,179.86
17120,0.00,0.00,-1.01,0.06,-0.18,0.00,302.32,341.20,-25.74,26.27,1552.45,-0.09,40.35,179.88
17144,-0.00,0.00,-1.00,-0.12,-0.18,0.06,307.05,323.82,-18.17,26.28,1549.21,-0.04,40.52,179.86
17168,0.00,0.00,-1.00,0.00,-0.24,0.06,307.05,323.82,-18.17,26.28,1551.80,-0.04,40.65,179.81
17191,-0.00,0.00,-1.00,0.06,-0.12,-0.06,307.05,323.82,-18.17,26.30,1551.50,-0.00,40.76,179.84
17215,0.00,0.00,-1.00,0.00,-0.12,0.06,307.05,323.82,-18.17,26.30,1549.54,-0.01,40.84,179.84
17240,-0.00,0.00,-1.00,0.00,-0.18,0.06,307.05,323.82,-18.17,26.29,1553.06,0.02,40.92,179.83
17264,-0.00,0.00,-1.00,-0.06,-0.12,0.06,308.62,315.93,-31.80,26.29,1552.10,0.07,41.12,179.81
17288,-0.00,0.00,-1.00,-0.06,-0.24,0.00,308.62,315.93,-31.80,26.28,1553.39,0.07,41.29,179.78
17311,-0.00,0.01,-1.00,0.00,-0.24,0.00,308.62,315.93,-31.80,26.29,1552.14,0.07,41.42,179.74
17335,0.00,0.00,-1.00,-0.06,-0.12,0.00,308.62,315.93,-31.80,26.31,1552.47,0.04,41.54,179.81
17359,0.00,0.00,-1.01,0.06,-0.18,0.00,308.62,315.93,-31.80,26.27,1555.13,0.02,41.63,179.85
17384,-0.00,0.00,-1.00,0.00,-0.12,-0.06,305.47,325.40,-25.74,26.29,1550.36,0.06,41.47,179.81
17408,-0.00,0.00,-1.00,-0.06,-0.06,0.00,305.47,325.40,-25.74,26.28,1551.16,0.08,41.35,179.86
17431,-0.00,0.00,-1.00,0.00,-0.31,0.00,305.47,325.40,-25.74,26.30,1552.93,0.05,41.26,179.88
17455,0.00,0.00,-1.00,0.00,-0.12,0.00,305.47,325.40,-25.74,26.27,1552.87,0.02,41.19,179.86
17478,-0.00,0.00,-1.01,-0.06,-0.18,-0.06,305.47,325.40,-25.74,26.29,1552.96,0.05,41.13,179.85
17508,-0.00,0.00,-1.00,0.00,-0.24,0.06,299.17,325.40,-28.77,26.30,1551.74,0.02,40.91,179.86
17531,-0.00,0.00,-1.00,0.06,-0.18,0.00,299.17,325.40,-28.77,26.29,1554.31,0.01,40.78,179.88
17555,-0.00,0.00,-1.00,0.06,-0.12,-0.12,299.17,325.40,-28.77,26.29,1549.90,0.01,40.68,179.89
17579,0.00,0.00,-1.00,0.00,-0.12,0.06,299.17,325.40,-28.77,26.27,1553.02,-0.04,40.60,179.87
17620,-0.00,0.00,-1.00,0.00,-0.18,-0.06,299.17,325.40,-28.77,26.30,1552.38,0.01,40.50,179.83
17644,-0.00,0.00,-1.00,0.12,-0.24,0.06,299.17,319.09,-19.69,26.30,1551.53,0.04,40.58,179.84
17669,-0.00,0.01,-1.00,0.06,-0.18,0.06,299.17,319.09,-19.69,26.29,1549.97,0.03,40.64,179.78
17693,-0.00,0.00,-1.00,0.00,-0.12,0.18,299.17,319.09,-19.69,26.28,1550.15,0.04,40.68,179.78
17717,0.00,0.00,-1.00,-0.12,-0.12,0.00,299.17,319.09,-19.69,26.27,1549.26,0.00,40.72,179.80
17740,-0.00,0.00,-1.00,0.06,-0.12,-0.06,299.17,319.09,-19.69,26.31,1551.74,0.02,40.75,179.79
17764,0.00,0.00,-1.00,0.00,-0.12,0.00,307.05,330.14,-36.34,26.32,1552.14,-0.03,40.73,179.83
17790,-0.00,0.00,-1.00,-0.06,-0.12,-0.06,307.05,330.14,-36.34,26.31,1549.78,-0.01,40.71,179.81
17813,-0.00,0.00,-1.01,0.06,-0.18,0.00,307.05,330.14,-36.34,26.31,1551.03,-0.00,40.69,179.81
17837,-0.00,0.00,-1.00,0.12,-0.12,0.00,307.05,330.14,-36.34,26.30,1551.21,0.04,40.68,179.86
17860,-0.00,0.00,-1.00,0.06,-0.18,0.06,307.05,330.14,-36.34,26.30,1553.11,0.03,40.67,179.84
17884,0.00,0.00,-1.00,0.00,-0.24,-0.06,305.47,325.40,-25.74,26.33,1551.19,0.00,40.72,179.80
17908,-0.00,0.00,-1.00,0.00,-0.18,0.00,305.47,325.40,-25.74,26.30,1549.10,0.02,40.76,179.84
17933,-0.00,0.00,-1.00,0.00,-0.24,0.00,305.47,325.40,-25.74,26.32,1549.87,0.06,40.79,179.83
17957,-0.00,0.00,-1.01,0.06,-0.12,0.06,305.47,325.40,-25.74,26.31,1551.49,0.06,40.81,179.81
17980,0.00,0.00,-1.00,0.06,-0.18,0.06,305.47,325.40,-25.74,26.32,1552.28,0.03,40.83,179.82
18004,0.00,0.00,-1.00,0.00,-0.18,0.00,308.62,325.40,-37.86,26.30,1552.71,0.01,40.90,179.79
18028,-0.00,0.00,-1.00,-0.06,-0.24,0.06,308.62,325.40,-37.86,26.29,1553.35,0.04,40.95,179.81
18053,-0.00,0.00,-1.00,-0.06,-0.18,0.12,308.62,325.40,-37.86,26.30,1549.40,0.05,41.00,179.84
18077,-0.00,0.00,-1.00,0.00,-0.18,0.12,308.62,325.40,-37.86,26.30,1552.62,0.06,41.03,179.83
18100,0.00,0.00,-1.01,-0.06,-0.18,0.06,308.62,325.40,-37.86,26.30,1552.16,0.03,41.06,179.83
18124,-0.00,0.00,-1.00,0.06,-0.06,0.06,299.17,319.09,-22.71,26.32,1552.40,0.04,41.02,179.84
18148,-0.00,0.00,-1.00,-0.06,-0.18,0.00,299.17,319.09,-22.71,26.31,1550.32,0.04,40.99,179.80
18172,-0.00,0.00,-1.00,0.06,-0.18,0.06,299.17,319.09,-22.71,26.32,1551.76,0.03,40.96,179.82
18197,-0.00,0.00,-1.01,0.06,-0.18,0.00,299.17,319.09,-22.71,26.33,1549.25,0.06,40.94,179.78
18221,-0.00,0.00,-1.00,0.06,-0.24,-0.06,299.17,319.09,-22.71,26.29,1551.64,0.06,40.93,179.82
18244,-0.00,0.00,-1.00,0.06,-0.12,0.00,313.35,314.35,-30.28,26.31,1551.79,0.08,41.22,179.80
18268,0.00,0.00,-1.00,-0.06,-0.12,0.00,313.35,314.35,-30.28,26.32,1550.93,0.04,41.47,179.80
18292,-0.00,0.00,-1.01,0.06,-0.18,0.06,313.35,314.35,-30.28,26.30,1551.85,0.04,41.67,179.80
18317,-0.00,0.00,-1.01,0.00,-0.18,0.00,313.35,314.35,-30.28,26.30,1550.90,0.05,41.85,179.79
18341,0.00,0.01,-1.00,0.00,-0.12,0.00,313.35,314.35,-30.28,26.31,1550.44,0.03,41.99,179.75
18364,-0.00,0.00,-1.00,0.12,-0.18,0.00,296.02,315.93,-25.74,26.30,1553.07,0.06,41.75,179.78
18388,-0.00,0.00,-1.00,0.06,-0.18,0.18,296.02,315.93,-25.74,26.32,1552.61,0.10,41.55,179.84
18412,-0.00,0.00,-1.00,0.00,-0.18,0.12,296.02,315.93,-25.74,26.32,1553.32,0.11,41.40,179.85
18435,-0.00,0.00,-1.00,0.00,-0.12,0.00,296.02,315.93,-25.74,26.31,1553.19,0.07,41.29,179.82
18460,0.00,0.00,-1.00,-0.06,-0.24,0.00,296.02,315.93,-25.74,26.32,1550.23,0.01,41.19,179.85
18484,0.00,0.00,-1.00,0.06,-0.18,0.12,296.02,315.93,-25.74,26.32,1550.96,-0.06,41.12,179.87
18508,-0.00,0.00,-1.00,0.06,-0.18,0.06,303.90,323.82,-27.26,26.33,1553.32,0.00,41.07,179.87
18532,-0.00,0.00,-1.00,0.12,-0.18,0.00,303.90,323.82,-27.26,26.31,1549.47,0.03,41.03,179.88
18555,0.00,0.00,-1.01,-0.06,-0.06,0.06,303.90,323.82,-27.26,26.30,1552.12,0.01,41.01,179.87
18585,0.00,0.00,-1.00,0.00,-0.18,0.00,303.90,323.82,-27.26,26.28,1552.21,-0.02,40.98,179.81
18609,0.00,0.00,-1.01,0.00,-0.18,0.00,303.90,323.82,-27.26,26.34,1551.42,-0.03,40.96,179.85
18632,0.00,0.00,-1.01,-0.06,-0.06,0.06,302.32,315.93,-16.66,26.33,1552.21,-0.03,41.06,179.83
18656,-0.00,0.00,-1.00,0.06,-0.18,0.06,302.32,315.93,-16.66,26.32,1551.17,0.03,41.13,179.82
18680,-0.00,0.00,-1.00,0.00,-0.12,0.06,302.32,315.93,-16.66,26.32,1551.14,0.08,41.20,179.82
18703,0.00,0.00,-1.00,0.00,-0.12,-0.06,302.32,315.93,-16.66,26.31,1551.63,0.04,41.25,179.82
18729,-0.00,0.00,-1.01,0.00,-0.12,-0.06,302.32,315.93,-16.66,26.32,1552.24,0.03,41.29,179.81
18752,-0.00,0.00,-1.00,0.12,-0.18,0.00,307.05,311.19,-39.37,26.33,1555.39,0.04,41.48,179.82
18776,0.00,0.00,-1.00,-0.06,-0.06,0.00,307.05,311.19,-39.37,26.32,1552.80,0.02,41.63,179.83
18800,0.00,0.00,-1.00,-0.06,-0.12,-0.06,307.05,311.19,-39.37,26.32,1551.87,-0.02,41.75,179.81
18823,-0.00,0.00,-1.00,0.06,-0.12,0.06,307.05,311.19,-39.37,26.33,1550.50,0.01,41.85,179.81
18848,-0.00,0.00,-1.01,0.00,-0.18,0.06,307.05,311.19,-39.37,26.30,1552.39,0.02,41.94,179.79
18872,0.00,0.00,-1.00,-0.12,-0.18,0.00,316.49,320.66,-39.37,26.34,1549.27,0.00,42.02,179.78
18896,-0.00,0.00,-1.00,0.00,-0.12,0.00,316.49,320.66,-39.37,26.32,1551.47,0.02,42.07,179.77
18919,-0.00,0.00,-1.00,0.06,-0.18,0.06,316.49,320.66,-39.37,26.33,1551.32,0.02,42.12,179.76
18943,-0.00,0.00,-1.00,-0.06,-0.24,0.06,316.49,320.66,-39.37,26.32,1552.45,0.07,42.16,179.79
18967,-0.00,0.00,-1.00,0.00,-0.12,0.00,316.49,320.66,-39.37,26.32,1550.04,0.06,42.19,179.80
19000,0.00,0.00,-1.00,-0.06,-0.18,0.06,308.62,325.40,-37.86,26.33,1550.65,-0.05,41.90,179.84
19031,0.00,0.00,-1.00,0.00,-0.12,0.00,308.62,325.40,-37.86,26.32,1550.65,-0.07,41.72,179.84
19055,-0.00,0.00,-1.00,-0.06,-0.12,-0.06,308.62,325.40,-37.86,26.33,1550.96,-0.00,41.62,179.81
19078,-0.00,0.00,-1.00,0.00,-0.12,-0.06,308.62,325.40,-37.86,26.33,1552.61,-0.00,41.53,179.79
19102,-0.00,0.00,-1.00,-0.12,-0.12,0.06,308.62,325.40,-37.86,26.30,1554.20,-0.00,41.46,179.79
19128,0.00,0.00,-1.00,0.00,-0.18,0.00,313.35,314.35,-27.26,26.33,1551.91,-0.04,41.69,179.79
19151,0.00,0.00,-1.00,-0.06,-0.18,0.06,313.35,314.35,-27.26,26.34,1550.62,-0.04,41.85,179.81
19175,-0.00,0.00,-1.00,0.06,-0.18,-0.06,313.35,314.35,-27.26,26.33,1552.39,-0.01,41.99,179.78
19198,0.00,0.00,-1.01,0.00,-0.12,0.12,313.35,314.35,-27.26,26.33,1551.99,-0.01,42.11,179.80
19222,-0.00,0.00,-1.00,0.00,-0.18,0.00,313.35,314.35,-27.26,26.32,1552.60,0.03,42.20,179.79
19246,0.00,0.00,-1.00,-0.06,-0.18,0.00,310.20,326.98,-36.34,26.33,1550.25,0.00,42.00,179.81
19271,-0.00,0.00,-1.00,0.00,-0.24,0.00,310.20,326.98,-36.34,26.36,1552.39,0.02,41.82,179.82
19295,0.00,0.00,-1.00,0.00,-0.18,0.00,310.20,326.98,-36.34,26.32,1552.75,-0.05,41.70,179.85
19318,0.00,0.00,-1.00,0.06,-0.12,-0.06,310.20,326.98,-36.34,26.33,1550.19,-0.06,41.60,179.82
19342,0.00,0.00,-1.00,-0.06,-0.12,0.06,310.20,326.98,-36.34,26.32,1551.62,-0.06,41.52,179.84
19366,-0.00,0.00,-1.00,0.06,-0.12,-0.06,300.75,323.82,-24.23,26.32,1550.52,-0.02,41.32,179.86
19391,-0.00,0.00,-1.00,0.06,-0.24,0.00,300.75,323.82,-24.23,26.33,1552.67,0.03,41.16,179.86
19414,-0.00,0.00,-1.00,0.00,-0.18,0.00,300.75,323.82,-24.23,26.35,1553.43,0.04,41.04,179.81
19438,0.00,0.00,-1.01,0.00,-0.18,0.12,300.75,323.82,-24.23,26.33,1553.55,-0.02,40.95,179.81
19462,0.00,0.00,-1.00,0.06,-0.24,0.12,300.75,323.82,-24.23,26.34,1550.98,-0.05,40.87,179.86
19486,0.00,0.00,-1.00,-0.06,-0.12,0.06,310.20,323.82,-36.34,26.33,1549.88,-0.08,40.99,179.84
19511,0.00,0.00,-1.00,0.06,-0.18,0.00,310.20,323.82,-36.34,26.35,1551.84,-0.06,41.09,179.83
19534,-0.00,0.00,-1.00,0.06,-0.18,0.00,310.20,323.82,-36.34,26.33,1551.53,-0.00,41.16,179.84
19558,-0.00,0.00,-1.00,0.06,-0.18,0.00,310.20,323.82,-36.34,26.34,1549.69,0.04,41.22,179.85
19582,-0.00,0.00,-1.00,0.00,-0.18,0.00,310.20,323.82,-36.34,26.34,1550.55,0.06,41.27,179.85
19605,0.00,0.00,-1.00,0.00,-0.18,0.06,303.90,323.82,-30.28,26.33,1552.75,0.03,41.19,179.85
19629,0.00,0.00,-1.00,0.06,-0.24,0.06,303.90,323.82,-30.28,26.35,1552.72,-0.00,41.13,179.84
19659,-0.00,0.00,-1.00,0.12,-0.12,-0.06,303.90,323.82,-30.28,26.33,1552.05,0.12,41.07,179.85
19682,-0.00,0.00,-1.00,0.00,-0.12,0.00,303.90,323.82,-30.28,26.35,1552.99,0.12,41.03,179.86
19706,0.00,0.00,-1.00,0.00,-0.18,-0.06,303.90,323.82,-30.28,26.33,1554.04,0.03,41.01,179.81
19730,0.00,0.00,-1.00,-0.06,-0.24,-0.06,314.92,315.93,-16.66,26.34,1552.02,0.01,41.30,179.78
19753,-0.00,0.00,-1.00,-0.12,-0.18,0.18,314.92,315.93,-16.66,26.34,1549.48,0.02,41.53,179.78
19779,-0.00,0.00,-1.00,0.00,-0.12,0.06,314.92,315.93,-16.66,26.34,1552.81,0.03,41.74,179.77
19802,0.00,0.00,-1.01,0.06,-0.12,0.00,314.92,315.93,-16.66,26.33,1551.99,0.02,41.90,179.80
19826,-0.00,0.01,-1.00,0.00,-0.06,-0.06,314.92,315.93,-16.66,26.33,1553.23,0.04,42.04,179.76
19850,0.00,0.00,-1.00,0.00,-0.12,0.00,314.92,328.56,-28.77,26.33,1548.59,-0.01,41.93,179.79
19873,-0.00,0.00,-1.00,-0.06,-0.18,0.06,314.92,328.56,-28.77,26.35,1550.82,0.03,41.84,179.80
19897,0.00,0.00,-1.00,0.00,-0.24,0.00,314.92,328.56,-28.77,26.34,1552.08,-0.01,41.77,179.81
19922,0.00,0.00,-1.00,0.00,-0.24,0.00,314.92,328.56,-28.77,26.35,1552.02,-0.01,41.71,179.80
19946,-0.00,0.00,-1.00,0.00,-0.18,0.06,314.92,328.56,-28.77,26.35,1551.22,-0.00,41.67,179.80
19969,0.00,0.00,-1.00,0.06,-0.06,0.00,302.32,338.04,-28.77,26.36,1552.38,-0.05,41.18,179.87
19993,0.00,0.00,-1.00,0.06,-0.24,0.12,302.32,338.04,-28.77,26.36,1552.07,-0.06,40.80,179.84
20017,0.00,0.00,-1.00,0.00,-0.18,-0.06,302.32,338.04,-28.77,26.33,1550.79,-0.05,40.51,179.83
20042,-0.00,0.00,-1.00,-0.06,-0.18,0.12,302.32,338.04,-28.77,26.35,1552.90,-0.01,40.28,179.82
20066,-0.00,0.01,-1.00,0.00,-0.18,0.00,302.32,338.04,-28.77,26.33,1551.04,0.02,40.11,179.77
20089,-0.00,0.00,-1.00,0.06,-0.18,0.00,302.32,338.04,-28.77,26.36,1551.40,0.02,39.98,179.82
20113,0.00,0.00,-1.00,-0.06,-0.18,0.00,299.17,322.24,-31.80,26.35,1553.60,0.01,40.10,179.80
20137,0.00,0.00,-1.00,0.06,-0.12,-0.06,299.17,322.24,-31.80,26.35,1553.30,-0.03,40.20,179.78
20160,-0.00,0.00,-1.00,0.06,-0.18,0.00,299.17,322.24,-31.80,26.34,1548.62,0.02,40.27,179.81
20185,-0.00,0.00,-1.00,0.06,-0.24,-0.06,299.17,322.24,-31.80,26.35,1551.58,0.03,40.34,179.79
20209,-0.00,0.00,-1.00,0.00,-0.24,0.00,299.17,322.24,-31.80,26.33,1550.69,0.07,40.39,179.79
20233,-0.00,0.00,-1.00,0.06,-0.12,0.12,308.62,322.24,-28.77,26.37,1550.48,0.12,40.59,179.77
20257,0.00,0.00,-1.00,0.06,-0.12,0.00,308.62,322.24,-28.77,26.36,1550.82,0.05,40.76,179.76
20280,0.00,0.00,-1.00,0.12,-0.18,0.00,308.62,322.24,-28.77,26.34,1553.75,0.02,40.89,179.83
20305,0.00,0.00,-1.01,0.00,-0.12,-0.06,308.62,322.24,-28.77,26.36,1550.60,-0.01,41.01,179.79
20329,-0.00,0.00,-1.01,-0.06,-0.12,0.06,308.62,322.24,-28.77,26.36,1551.76,0.02,41.10,179.79
20353,-0.00,0.00,-1.00,-0.06,-0.18,0.00,310.20,339.62,-24.23,26.34,1554.27,0.06,40.88,179.82
20376,-0.00,0.00,-1.00,0.00,-0.24,-0.06,310.20,339.62,-24.23,26.36,1552.43,0.05,40.72,179.84
20408,-0.00,0.00,-1.00,0.00,-0.12,0.00,310.20,339.62,-24.23,26.36,1553.05,0.05,40.55,179.86
20445,-0.00,0.00,-1.00,0.00,-0.31,-0.06,310.20,339.62,-24.23,26.38,1550.48,0.04,40.41,179.85
20470,0.00,0.00,-1.00,0.00,-0.12,0.00,302.32,325.40,-22.71,26.36,1553.36,-0.01,40.45,179.83
20494,0.00,0.00,-1.00,0.06,-0.12,0.06,302.32,325.40,-22.71,26.35,1551.80,-0.01,40.48,179.84
20517,-0.00,0.00,-1.01,0.00,-0.12,0.12,302.32,325.40,-22.71,26.36,1553.69,0.01,40.51,179.82
20541,0.00,0.00,-1.00,0.00,-0.12,0.06,302.32,325.40,-22.71,26.38,1550.45,-0.00,40.52,179.80
20565,-0.00,0.00,-1.00,0.00,-0.24,0.06,302.32,325.40,-22.71,26.34,1551.70,0.01,40.54,179.80
20590,-0.00,0.00,-1.00,-0.06,-0.24,0.06,300.75,333.30,-21.20,26.35,1552.56,0.03,40.36,179.78
20614,0.00,0.00,-1.00,0.06,-0.24,0.06,300.75,333.30,-21.20,26.35,1551.97,0.01,40.23,179.78
20637,0.00,0.00,-1.00,0.00,-0.18,-0.06,300.75,333.30,-21.20,26.38,1554.39,-0.02,40.13,179.82
20661,-0.00,0.00,-1.00,0.06,-0.24,0.12,300.75,333.30,-21.20,26.36,1551.43,0.01,40.05,179.83
20684,-0.00,0.00,-1.00,-0.06,-0.06,-0.06,300.75,333.30,-21.20,26.38,1551.43,0.02,39.99,179.79
20708,-0.00,0.00,-1.00,-0.06,-0.12,0.00,300.75,333.30,-21.20,26.37,1554.94,0.01,39.94,179.81
20738,0.00,0.00,-1.00,0.06,-0.18,0.06,307.05,326.98,-24.23,26.37,1549.78,0.01,40.18,179.78
20762,0.00,0.00,-1.00,0.00,-0.18,-0.06,307.05,326.98,-24.23,26.36,1552.71,-0.02,40.32,179.77
20785,-0.00,0.00,-1.00,-0.06,-0.18,0.06,307.05,326.98,-24.23,26.37,1552.95,0.00,40.44,179.80
20809,-0.00,0.00,-1.00,0.06,-0.18,0.06,307.05,326.98,-24.23,26.36,1552.04,0.04,40.53,179.84
20833,-0.00,0.01,-1.00,-0.12,-0.18,0.00,300.75,326.98,-21.20,26.36,1551.21,0.05,40.49,179.78
20866,-0.00,0.00,-1.00,0.06,-0.24,0.06,300.75,326.98,-21.20,26.36,1552.16,0.05,40.43,179.77
20890,-0.00,0.00,-1.00,0.00,-0.12,0.06,300.75,326.98,-21.20,26.37,1551.03,0.03,40.41,179.81
20914,-0.00,0.00,-1.00,0.06,-0.18,-0.06,300.75,326.98,-21.20,26.36,1551.30,0.07,40.39,179.78
20937,-0.00,0.00,-1.00,0.06,-0.18,-0.06,300.75,326.98,-21.20,26.38,1549.47,0.06,40.38,179.77
20961,-0.00,0.00,-1.00,0.06,-0.18,0.06,302.32,328.56,-28.77,26.36,1549.34,0.04,40.36,179.75
20985,0.00,0.00,-1.00,0.12,-0.18,0.00,302.32,328.56,-28.77,26.38,1549.74,0.00,40.36,179.79
21010,0.00,0.01,-1.00,0.00,-0.12,0.00,302.32,328.56,-28.77,26.36,1552.28,-0.01,40.35,179.75
21034,-0.00,0.00,-1.00,0.00,-0.18,-0.06,302.32,328.56,-28.77,26.37,1551.60,0.03,40.35,179.74
21057,0.00,0.00,-1.00,0.06,-0.24,0.00,302.32,328.56,-28.77,26.36,1552.25,0.01,40.34,179.80
21081,-0.00,0.00,-1.00,-0.06,-0.18,0.00,289.73,319.09,-25.74,26.37,1550.26,0.01,40.26,179.81
21105,0.00,0.00,-1.00,-0.06,-0.24,0.12,289.73,319.09,-25.74,26.37,1549.47,-0.00,40.19,179.82
21130,-0.00,0.00,-1.00,0.06,-0.12,0.06,289.73,319.09,-25.74,26.40,1552.61,0.00,40.13,179.82
21154,0.00,0.00,-1.00,0.00,-0.12,-0.12,289.73,319.09,-25.74,26.39,1552.74,-0.02,40.10,179.79
21177,0.00,0.00,-1.00,0.06,-0.18,0.06,289.73,319.09,-25.74,26.38,1551.52,-0.03,40.06,179.80
21201,-0.00,0.00,-1.00,0.06,-0.12,0.00,289.73,319.09,-25.74,26.37,1551.45,0.04,40.04,179.79
21225,-0.00,0.00,-1.00,0.00,-0.18,0.00,299.17,319.09,-13.63,26.38,1550.26,0.05,40.21,179.81
21248,-0.00,0.00,-1.00,0.00,-0.12,0.06,299.17,319.09,-13.63,26.37,1552.64,0.06,40.34,179.79
21274,-0.00,0.00,-1.00,0.00,-0.24,0.06,299.17,319.09,-13.63,26.38,1551.20,0.06,40.45,179.77
21297,0.00,0.00,-1.01,0.06,-0.12,0.06,299.17,319.09,-13.63,26.38,1553.74,0.03,40.53,179.79
21321,0.00,0.00,-1.00,0.12,-0.18,0.06,299.17,319.09,-13.63,26.38,1552.58,0.01,40.60,179.81
21345,-0.00,0.00,-1.00,0.06,-0.24,0.06,307.05,320.66,-24.23,26.38,1551.32,0.04,40.77,179.79
21368,-0.00,0.00,-1.01,-0.12,-0.18,-0.12,307.05,320.66,-24.23,26.38,1550.47,0.05,40.90,179.77
21394,0.00,0.01,-1.01,0.00,-0.18,0.06,307.05,320.66,-24.23,26.37,1553.59,0.02,41.02,179.74
21417,-0.00,0.00,-1.00,0.00,-0.12,0.00,307.05,320.66,-24.23,26.39,1553.56,0.03,41.11,179.74
21441,0.00,0.00,-1.01,-0.06,-0.18,-0.06,307.05,320.66,-24.23,26.36,1552.52,-0.01,41.18,179.80
21465,-0.00,0.00,-1.00,-0.06,-0.24,0.00,308.62,319.09,-19.69,26.38,1551.41,0.01,41.29,179.79
21488,-0.00,0.00,-1.00,0.00,-0.12,0.06,308.62,319.09,-19.69,26.38,1550.83,0.02,41.38,179.79
21512,-0.00,0.00,-1.00,0.00,-0.24,0.06,308.62,319.09,-19.69,26.38,1550.78,0.04,41.45,179.80
21537,-0.00,0.00,-1.01,0.06,-0.12,0.00,308.62,319.09,-19.69,26.38,1552.00,0.06,41.51,179.83
21561,-0.00,0.00,-1.00,0.06,-0.12,0.00,308.62,319.09,-19.69,26.38,1552.21,0.04,41.56,179.83
21585,-0.00,0.00,-1.00,0.00,-0.24,-0.06,313.35,333.30,-12.11,26.39,1553.46,0.05,41.43,179.86
21608,0.00,0.00,-1.00,0.00,-0.12,0.00,313.35,333.30,-12.11,26.38,1552.48,0.02,41.33,179.82
21632,-0.00,0.00,-1.00,0.06,-0.06,0.00,313.35,333.30,-12.11,26.37,1552.48,0.02,41.25,179.82
21657,-0.00,0.00,-1.00,0.06,-0.18,0.06,313.35,333.30,-12.11,26.39,1548.87,0.03,41.18,179.81
21681,0.00,0.00,-1.00,-0.06,-0.18,0.06,313.35,333.30,-12.11,26.38,1551.81,0.01,41.13,179.80
21705,-0.00,0.00,-1.00,-0.12,-0.24,0.06,310.20,317.51,-36.34,26.40,1550.89,0.04,41.30,179.83
21728,0.00,0.00,-1.00,0.06,-0.24,0.12,310.20,317.51,-36.34,26.39,1552.63,0.03,41.43,179.81
21752,-0.00,0.00,-1.00,-0.06,-0.18,0.06,310.20,317.51,-36.34,26.39,1551.96,0.03,41.54,179.83
21776,0.00,0.00,-1.00,0.06,-0.24,0.06,310.20,317.51,-36.34,26.37,1551.69,0.02,41.63,179.82
21805,-0.00,0.00,-1.00,0.06,-0.12,0.00,310.20,317.51,-36.34,26.39,1550.68,0.06,41.73,179.77
21846,0.00,0.00,-1.00,-0.06,-0.12,0.06,307.05,330.14,-15.14,26.37,1551.45,-0.03,41.31,179.92
21870,-0.00,0.00,-1.00,0.06,-0.06,0.00,307.05,330.14,-15.14,26.39,1552.06,-0.00,41.17,179.92
21894,0.00,0.00,-1.01,0.00,-0.18,0.00,307.05,330.14,-15.14,26.37,1553.52,-0.02,41.05,179.92
21918,-0.00,0.00,-1.00,0.06,-0.06,0.06,307.05,330.14,-15.14,26.38,1550.28,0.07,40.97,179.89
21943,-0.00,0.00,-1.00,0.00,-0.18,0.00,292.88,331.72,-16.66,26.38,1548.69,0.04,40.51,179.83
21967,-0.00,0.00,-1.00,0.00,-0.12,0.00,292.88,331.72,-16.66,26.40,1551.14,0.02,40.19,179.85
21990,0.00,0.00,-1.00,0.00,-0.12,0.00,292.88,331.72,-16.66,26.37,1552.45,-0.03,39.95,179.81
22014,0.00,0.00,-1.00,0.06,-0.18,0.06,292.88,331.72,-16.66,26.40,1551.50,-0.03,39.77,179.88
22037,-0.00,0.00,-1.00,0.00,-0.12,0.00,292.88,331.72,-16.66,26.39,1551.69,-0.01,39.63,179.87
22061,-0.00,0.00,-1.00,0.00,-0.12,-0.12,292.88,331.72,-16.66,26.37,1553.30,-0.01,39.53,179.87
22086,0.00,0.00,-1.00,-0.06,-0.18,0.00,307.05,333.30,-33.31,26.40,1550.52,-0.00,39.70,179.86
22110,-0.00,0.00,-1.01,0.06,-0.12,0.06,307.05,333.30,-33.31,26.39,1552.97,0.04,39.83,179.87
22134,-0.00,0.00,-1.00,0.00,-0.18,-0.06,307.05,333.30,-33.31,26.40,1550.80,0.07,39.94,179.84
22157,0.00,0.00,-1.00,0.00,-0.12,0.06,307.05,333.30,-33.31,26.38,1552.87,0.04,40.02,179.82
22181,-0.00,0.00,-1.00,0.00,-0.06,-0.06,307.05,333.30,-33.31,26.41,1552.24,0.04,40.09,179.81
22206,-0.00,0.00,-1.00,0.00,-0.18,0.06,314.92,325.40,-28.77,26.39,1553.00,0.07,40.41,179.81
22230,-0.00,0.00,-1.00,0.06,-0.12,0.00,314.92,325.40,-28.77,26.39,1551.93,0.12,40.66,179.82
22253,-0.00,0.00,-1.00,0.06,-0.18,-0.06,314.92,325.40,-28.77,26.38,1551.80,0.09,40.87,179.84
22277,-0.00,0.00,-1.01,0.06,-0.12,0.12,314.92,325.40,-28.77,26.41,1551.22,0.09,41.03,179.82
22301,-0.00,0.00,-1.00,-0.12,-0.18,0.00,314.92,325.40,-28.77,26.40,1553.00,0.07,41.17,179.85
22325,0.00,0.00,-1.00,0.00,-0.24,0.00,296.02,328.56,-22.71,26.38,1552.78,0.02,40.84,179.81
22350,-0.00,0.00,-1.00,0.00,-0.12,0.00,296.02,328.56,-22.71,26.40,1551.43,0.03,40.58,179.81
22373,-0.00,0.00,-1.01,0.00,-0.12,0.00,296.02,328.56,-22.71,26.41,1552.48,0.02,40.39,179.85
22397,-0.00,0.00,-1.00,0.00,-0.18,0.06,296.02,328.56,-22.71,26.40,1550.76,0.01,40.24,179.85
22420,-0.00,0.00,-1.00,0.06,-0.24,0.06,296.02,328.56,-22.71,26.38,1552.57,0.01,40.13,179.84
22444,0.00,0.00,-1.00,0.12,-0.18,0.00,296.02,331.72,-25.74,26.41,1552.29,-0.02,39.98,179.84
22470,0.00,0.00,-1.00,0.00,-0.06,-0.12,296.02,331.72,-25.74,26.39,1551.43,-0.03,39.86,179.83
22493,0.00,0.00,-1.00,0.00,-0.12,0.06,296.02,331.72,-25.74,26.41,1549.08,-0.03,39.77,179.86
22517,-0.00,0.00,-1.01,0.06,-0.24,0.06,296.02,331.72,-25.74,26.41,1552.07,-0.01,39.70,179.82
22540,-0.00,0.00,-1.00,0.06,-0.18,-0.06,296.02,331.72,-25.74,26.40,1549.51,0.01,39.65,179.80
22564,-0.00,0.00,-1.00,0.06,-0.18,0.00,299.17,322.24,-22.71,26.39,1550.54,0.03,39.84,179.78
22588,0.00,0.00,-1.00,0.00,-0.06,0.00,299.17,322.24,-22.71,26.41,1550.85,0.01,39.99,179.82
22613,-0.00,0.00,-1.00,0.00,-0.12,0.00,299.17,322.24,-22.71,26.40,1551.31,0.03,40.11,179.83
22637,-0.00,0.00,-1.00,0.06,-0.18,0.00,299.17,322.24,-22.71,26.38,1551.25,0.05,40.21,179.86
22660,-0.00,0.01,-1.00,0.06,-0.12,0.00,299.17,322.24,-22.71,26.41,1551.19,0.06,40.29,179.79
22684,0.00,0.01,-1.00,-0.06,-0.12,0.06,299.17,331.72,-25.74,26.40,1551.92,0.01,40.17,179.76
22708,-0.00,0.00,-1.00,0.12,-0.18,0.00,299.17,331.72,-25.74,26.39,1551.59,0.04,40.08,179.75
22733,-0.00,0.00,-1.01,0.06,-0.24,0.12,299.17,331.72,-25.74,26.43,1550.94,0.04,40.00,179.76
22757,-0.00,0.00,-1.00,0.12,-0.18,0.06,299.17,331.72,-25.74,26.41,1551.00,0.03,39.95,179.80
22780,0.00,0.00,-1.01,0.00,-0.12,0.00,299.17,331.72,-25.74,26.43,1553.05,-0.03,39.91,179.78
22804,-0.00,0.00,-1.00,0.00,-0.24,0.12,299.17,331.72,-25.74,26.42,1552.07,0.05,39.87,179.76
22828,0.00,0.00,-1.00,0.06,-0.18,0.06,302.32,325.40,-34.83,26.40,1553.11,0.02,40.01,179.77
22851,0.00,0.00,-1.00,-0.06,-0.18,0.00,302.32,325.40,-34.83,26.42,1552.44,0.01,40.13,179.78
22881,0.00,0.00,-1.00,0.00,-0.18,0.00,302.32,325.40,-34.83,26.39,1550.94,-0.02,40.24,179.78
22905,0.00,0.00,-1.00,-0.06,-0.18,0.06,302.32,325.40,-34.83,26.39,1554.55,-0.01,40.31,179.80
22928,0.00,0.00,-1.00,0.00,-0.18,0.12,302.32,325.40,-34.83,26.42,1553.36,-0.03,40.37,179.76
22952,-0.00,0.00,-1.00,0.00,-0.18,0.00,305.47,334.88,-22.71,26.40,1551.31,0.03,40.31,179.81
22976,0.00,0.00,-1.00,0.00,-0.18,0.00,305.47,334.88,-22.71,26.39,1554.03,-0.02,40.26,179.83
23001,-0.00,0.00,-1.01,-0.06,-0.12,0.06,305.47,334.88,-22.71,26.39,1552.53,0.02,40.22,179.86
23025,-0.00,0.00,-1.00,-0.06,-0.18,0.06,305.47,334.88,-22.71,26.42,1548.46,0.03,40.19,179.80
23048,-0.00,0.01,-1.00,0.00,-0.12,0.00,305.47,334.88,-22.71,26.42,1553.42,0.07,40.17,179.76
23072,-0.00,0.01,-1.00,-0.06,-0.12,0.06,314.92,325.40,-46.94,26.42,1552.62,0.09,40.44,179.71
23096,-0.00,0.00,-1.00,0.00,-0.12,0.00,314.92,325.40,-46.94,26.43,1551.31,0.08,40.67,179.73
23119,0.00,0.00,-1.00,0.00,-0.18,-0.06,314.92,325.40,-46.94,26.42,1551.31,0.06,40.86,179.72
23145,0.00,0.00,-1.00,0.06,-0.24,-0.06,314.92,325.40,-46.94,26.42,1550.63,0.03,41.04,179.77
23168,-0.00,0.00,-1.00,0.06,-0.24,-0.06,314.92,325.40,-46.94,26.39,1554.40,0.04,41.17,179.80
23192,-0.00,0.00,-1.00,0.06,-0.12,0.06,299.17,325.40,-31.80,26.42,1550.05,0.10,40.98,179.86
23216,-0.00,0.00,-1.00,0.00,-0.18,0.12,299.17,325.40,-31.80,26.41,1550.66,0.10,40.84,179.84
23255,-0.00,0.00,-1.00,0.06,-0.24,0.12,299.17,325.40,-31.80,26.43,1551.31,0.05,40.65,179.89
23280,0.00,0.00,-1.00,-0.12,-0.18,0.06,299.17,325.40,-31.80,26.40,1553.08,-0.03,40.57,179.83
23304,-0.00,0.00,-1.00,0.00,-0.06,0.00,314.92,325.40,-22.71,26.41,1550.21,-0.01,40.80,179.81
23328,-0.00,0.00,-1.00,0.00,-0.18,-0.06,314.92,325.40,-22.71,26.45,1551.95,0.05,40.98,179.78
23351,-0.00,0.00,-1.00,-0.06,-0.12,0.00,314.92,325.40,-22.71,26.42,1553.20,0.08,41.13,179.77
23375,0.00,0.00,-1.00,0.00,-0.18,0.06,314.92,325.40,-22.71,26.42,1550.57,0.02,41.25,179.77
23398,0.00,0.00,-1.00,0.00,-0.12,0.12,314.92,325.40,-22.71,26.41,1551.58,0.01,41.35,179.75
23424,-0.00,0.00,-1.00,0.00,-0.12,-0.06,318.07,325.40,-34.83,26.41,1551.31,0.02,41.49,179.77
23448,0.00,0.00,-1.00,0.00,-0.18,-0.06,318.07,325.40,-34.83,26.40,1551.43,0.01,41.60,179.81
23471,0.00,0.00,-1.00,0.00,-0.18,0.06,318.07,325.40,-34.83,26.41,1552.13,-0.00,41.68,179.81
23495,-0.00,0.00,-1.00,0.00,-0.12,0.00,318.07,325.40,-34.83,26.41,1551.55,0.05,41.75,179.82
23518,-0.00,0.00,-1.00,0.00,-0.24,0.00,318.07,325.40,-34.83,26.43,1552.89,0.05,41.81,179.84
23544,-0.00,0.01,-1.00,0.00,-0.18,0.06,318.07,325.40,-34.83,26.42,1549.83,0.05,41.85,179.77
23567,0.00,0.00,-1.00,0.00,-0.12,-0.06,307.05,317.51,-33.31,26.42,1548.67,-0.01,41.83,179.80
23591,-0.00,0.00,-1.00,0.06,-0.12,0.00,307.05,317.51,-33.31,26.40,1551.46,-0.00,41.82,179.82
23615,0.00,0.00,-1.00,0.06,-0.18,0.00,307.05,317.51,-33.31,26.40,1552.95,-0.02,41.81,179.79
23638,-0.00,0.00,-1.00,-0.06,-0.24,0.06,307.05,317.51,-33.31,26.42,1552.34,0.01,41.79,179.78
23662,-0.00,0.00,-1.00,-0.06,-0.31,0.00,307.05,317.51,-33.31,26.40,1551.94,0.03,41.78,179.78
23687,-0.00,0.00,-1.00,-0.06,-0.18,0.00,314.92,325.40,-34.83,26.43,1553.59,0.06,41.78,179.80
23711,0.00,0.00,-1.00,0.06,-0.18,0.06,314.92,325.40,-34.83,26.43,1550.29,0.03,41.78,179.78
23735,0.00,0.00,-1.00,0.12,-0.06,0.00,314.92,325.40,-34.83,26.43,1551.09,0.01,41.78,179.79
23758,0.00,0.00,-1.01,0.00,-0.18,0.06,314.92,325.40,-34.83,26.43,1551.27,-0.01,41.77,179.80
23782,0.00,0.00,-1.00,-0.06,-0.12,0.06,314.92,325.40,-34.83,26.41,1552.31,-0.01,41.77,179.80
23807,-0.00,0.00,-1.00,0.00,-0.24,0.06,300.75,317.51,-18.17,26.42,1553.16,0.06,41.63,179.79
23831,-0.00,0.00,-1.00,-0.06,-0.18,0.00,300.75,317.51,-18.17,26.42,1551.45,0.07,41.53,179.77
23855,0.00,0.00,-1.00,0.00,-0.12,0.06,300.75,317.51,-18.17,26.42,1551.30,0.02,41.46,179.79
23878,-0.00,0.00,-1.00,0.00,-0.18,0.00,300.75,317.51,-18.17,26.41,1552.34,0.03,41.40,179.79
23902,-0.00,0.00,-1.00,0.06,-0.12,0.12,300.75,317.51,-18.17,26.43,1552.64,0.03,41.34,179.80
23926,-0.00,0.00,-1.00,0.06,-0.24,-0.06,314.92,319.09,-25.74,26.44,1552.43,0.05,41.53,179.79
23956,0.00,0.00,-1.00,0.00,-0.06,0.12,314.92,319.09,-25.74,26.42,1552.37,0.01,41.71,179.77
23979,0.00,0.00,-1.00,0.06,-0.24,0.00,314.92,319.09,-25.74,26.44,1550.26,0.01,41.83,179.80
24003,0.00,0.00,-1.00,0.00,-0.24,0.00,314.92,319.09,-25.74,26.43,1549.77,0.01,41.92,179.79
24026,-0.00,0.00,-1.00,-0.06,-0.18,0.00,314.92,319.09,-25.74,26.43,1552.12,0.03,42.00,179.78
24050,0.00,0.00,-1.00,-0.06,-0.12,0.00,307.05,323.82,-33.31,26.42,1551.66,0.00,41.83,179.79
24075,-0.00,0.00,-1.00,0.00,-0.18,0.18,307.05,323.82,-33.31,26.44,1551.45,0.03,41.69,179.77
24099,-0.00,0.00,-1.00,0.06,-0.12,0.00,307.05,323.82,-33.31,26.42,1550.68,0.06,41.59,179.76
24123,-0.00,0.00,-1.01,0.00,-0.18,0.00,307.05,323.82,-33.31,26.42,1552.31,0.05,41.50,179.76
24146,0.00,0.00,-1.00,0.00,-0.18,0.06,307.05,323.82,-33.31,26.42,1551.85,-0.00,41.44,179.78
24170,0.00,0.00,-1.00,0.00,-0.18,0.06,307.05,323.82,-21.20,26.43,1552.58,-0.01,41.39,179.83
24194,-0.00,0.00,-1.01,0.06,-0.12,0.00,307.05,323.82,-21.20,26.44,1550.65,0.07,41.35,179.83
24219,-0.00,0.00,-1.00,-0.06,-0.18,0.00,307.05,323.82,-21.20,26.44,1551.81,0.07,41.31,179.81
24242,-0.00,0.00,-1.00,0.06,-0.18,0.00,307.05,323.82,-21.20,26.42,1549.03,0.08,41.29,179.79
24266,0.00,0.00,-1.01,0.06,-0.12,-0.06,307.05,323.82,-21.20,26.45,1551.66,0.00,41.27,179.79
24290,0.00,0.00,-1.00,0.06,-0.18,0.00,296.02,322.24,-19.69,26.41,1551.14,-0.01,41.05,179.80
24314,-0.00,0.00,-1.00,0.06,-0.18,0.00,296.02,322.24,-19.69,26.42,1552.79,0.02,40.89,179.82
24339,0.00,0.00,-1.00,-0.06,-0.18,0.06,296.02,322.24,-19.69,26.44,1555.36,-0.00,40.75,179.81
24362,-0.00,0.00,-1.00,0.06,-0.18,0.12,296.02,322.24,-19.69,26.44,1551.29,0.01,40.64,179.83
24386,0.00,0.00,-1.00,0.00,-0.24,0.00,296.02,322.24,-19.69,26.44,1550.29,0.00,40.57,179.83
24410,0.00,0.00,-1.00,0.06,-0.12,0.06,296.02,322.24,-19.69,26.44,1549.79,-0.04,40.51,179.86
24433,-0.00,0.00,-1.00,0.00,-0.18,0.12,308.62,322.24,-34.83,26.44,1551.54,0.01,40.69,179.85
24457,-0.00,0.00,-1.00,-0.06,-0.24,0.00,308.62,322.24,-34.83,26.42,1552.97,0.05,40.83,179.83
24482,-0.00,0.00,-1.00,0.00,-0.18,-0.06,308.62,322.24,-34.83,26.44,1554.66,0.06,40.96,179.88
24506,-0.00,0.00,-1.01,0.00,-0.18,0.00,308.62,322.24,-34.83,26.44,1552.09,0.08,41.06,179.85
24530,0.00,0.00,-1.00,0.06,-0.12,0.06,308.62,322.24,-34.83,26.42,1550.44,0.03,41.14,179.83
24553,0.00,0.00,-1.00,0.00,-0.24,0.06,318.07,315.93,-25.74,26.43,1552.55,0.02,41.44,179.81
24577,0.00,0.00,-1.01,0.06,-0.18,0.00,318.07,315.93,-25.74,26.45,1552.24,0.00,41.70,179.82
24602,-0.00,0.00,-1.00,0.06,-0.18,-0.06,318.07,315.93,-25.74,26.44,1551.90,0.05,41.93,179.85
24634,-0.00,0.00,-1.00,0.00,-0.18,0.06,318.07,315.93,-25.74,26.44,1553.62,0.15,42.16,179.86
24671,0.00,0.00,-1.01,0.00,-0.18,-0.06,311.77,312.77,-25.74,26.45,1552.06,0.03,42.29,179.81
24695,0.00,0.00,-1.00,-0.06,-0.18,-0.12,311.77,312.77,-25.74,26.44,1553.59,-0.03,42.35,179.85
24718,0.00,0.00,-1.00,0.00,-0.18,0.00,311.77,312.77,-25.74,26.44,1551.54,-0.04,42.40,179.83
24742,-0.00,0.00,-1.01,0.06,-0.18,0.18,311.77,312.77,-25.74,26.45,1554.51,0.00,42.44,179.85
24767,-0.00,0.00,-1.00,0.00,-0.18,-0.12,311.77,312.77,-25.74,26.43,1549.76,0.07,42.48,179.80
24791,-0.00,0.00,-1.00,0.06,-0.12,0.06,297.60,317.51,-27.26,26.44,1548.78,0.06,42.13,179.81
24815,0.00,0.00,-1.00,0.00,-0.12,0.06,297.60,317.51,-27.26,26.44,1551.96,-0.02,41.86,179.82
24838,0.00,0.00,-1.00,0.18,-0.18,0.06,297.60,317.51,-27.26,26.45,1550.90,-0.04,41.65,179.83
24862,0.00,0.00,-1.00,-0.12,-0.18,0.06,297.60,317.51,-27.26,26.45,1551.78,-0.06,41.48,179.82
24887,0.00,0.00,-1.00,0.00,-0.12,0.00,297.60,317.51,-27.26,26.45,1552.45,-0.06,41.34,179.83
24911,-0.00,0.00,-1.00,0.06,-0.24,0.06,305.47,315.93,-25.74,26.42,1555.11,-0.03,41.42,179.86
24935,0.00,0.00,-1.00,0.06,-0.18,0.00,305.47,315.93,-25.74,26.44,1552.36,-0.02,41.49,179.87
24958,0.00,0.00,-1.00,0.00,-0.18,0.12,305.47,315.93,-25.74,26.46,1550.86,-0.03,41.53,179.81
24982,0.00,0.00,-1.00,0.06,-0.18,0.06,305.47,315.93,-25.74,26.44,1550.95,-0.04,41.57,179.79
25005,-0.00,0.00,-1.01,-0.06,-0.12,0.06,305.47,315.93,-25.74,26.44,1550.80,-0.02,41.61,179.77
25035,-0.00,0.00,-1.00,0.00,-0.18,0.06,308.62,331.72,-28.77,26.45,1551.72,0.00,41.35,179.76
25059,0.00,0.00,-1.01,0.12,-0.18,0.06,308.62,331.72,-28.77,26.46,1555.17,-0.01,41.20,179.78
25083,0.00,0.00,-1.00,-0.06,-0.18,0.06,308.62,331.72,-28.77,26.43,1550.40,-0.05,41.08,179.80
25106,0.00,0.00,-1.00,0.00,-0.12,0.12,308.62,331.72,-28.77,26.47,1552.20,-0.09,40.99,179.83
25130,-0.00,0.00,-1.00,0.00,-0.12,0.18,308.62,331.72,-28.77,26.44,1551.87,-0.05,40.91,179.84
25163,0.00,0.00,-1.00,0.00,-0.18,0.00,307.05,317.51,-27.26,26.43,1550.68,-0.04,41.13,179.77
25186,0.00,0.00,-1.00,0.00,-0.12,0.12,307.05,317.51,-27.26,26.45,1553.43,-0.02,41.25,179.77
25210,0.00,0.00,-1.00,-0.06,-0.12,0.00,307.05,317.51,-27.26,26.45,1549.73,-0.06,41.34,179.76
25234,-0.00,0.00,-1.01,0.06,-0.18,-0.12,307.05,317.51,-27.26,26.47,1550.40,-0.03,41.42,179.75
25257,-0.00,0.00,-1.00,0.00,-0.12,0.00,307.05,317.51,-27.26,26.46,1551.81,0.01,41.49,179.77
25281,0.00,0.00,-1.00,0.06,-0.24,0.00,305.47,319.09,-31.80,26.48,1552.66,-0.01,41.48,179.80
25306,-0.00,0.00,-1.00,0.18,-0.06,0.12,305.47,319.09,-31.80,26.44,1551.16,0.06,41.47,179.82
25330,-0.00,0.00,-1.01,0.00,-0.06,0.12,305.47,319.09,-31.80,26.43,1551.56,0.07,41.47,179.82
25354,-0.00,0.01,-1.00,0.12,-0.18,0.18,305.47,319.09,-31.80,26.48,1553.18,0.08,41.46,179.77
25377,-0.00,0.00,-1.00,-0.06,-0.18,0.00,305.47,319.09,-31.80,26.46,1551.99,0.09,41.46,179.77
25401,-0.00,0.00,-1.00,-0.12,-0.06,0.12,308.62,319.09,-19.69,26.47,1552.69,0.06,41.52,179.77
25426,0.00,0.00,-1.00,0.00,-0.06,0.06,308.62,319.09,-19.69,26.47,1554.53,0.03,41.56,179.80
25450,0.00,0.00,-1.00,0.00,-0.18,-0.12,308.62,319.09,-19.69,26.46,1551.10,0.01,41.60,179.80
25474,0.00,0.00,-1.00,0.00,-0.18,0.06,308.62,319.09,-19.69,26.46,1552.11,0.00,41.63,179.83
25497,0.00,0.00,-1.00,0.00,-0.24,-0.12,308.62,319.09,-19.69,26.45,1550.58,-0.01,41.66,179.84
25521,0.00,0.00,-1.00,0.06,-0.12,0.06,308.62,319.09,-19.69,26.47,1551.80,-0.02,41.68,179.80
25545,0.00,0.00,-1.00,0.06,-0.12,0.18,311.77,328.56,-22.71,26.48,1554.56,-0.05,41.58,179.81
25570,0.00,0.00,-1.00,0.06,-0.18,0.06,311.77,328.56,-22.71,26.49,1552.01,-0.04,41.50,179.80
25594,0.00,0.00,-1.00,0.18,-0.18,0.06,311.77,328.56,-22.71,26.47,1549.69,-0.03,41.44,179.79
25617,0.00,0.00,-1.01,0.18,-0.18,0.00,311.77,328.56,-22.71,26.47,1552.81,-0.05,41.39,179.83
25641,-0.00,0.00,-1.00,0.06,-0.24,0.06,311.77,328.56,-22.71,26.45,1555.32,0.03,41.35,179.84
25665,0.00,0.00,-1.00,0.12,-0.24,0.06,296.02,325.40,-19.69,26.46,1548.16,-0.03,41.05,179.85
25690,-0.00,0.00,-1.00,-0.06,-0.18,0.12,296.02,325.40,-19.69,26.45,1553.39,0.02,40.80,179.81
25714,-0.00,0.00,-1.01,0.06,-0.24,0.00,296.02,325.40,-19.69,26.44,1553.97,0.04,40.62,179.86
25737,-0.00,0.00,-1.00,-0.06,-0.24,0.12,296.02,325.40,-19.69,26.47,1555.32,0.05,40.49,179.84
25761,-0.00,0.00,-1.00,0.12,-0.12,0.00,296.02,325.40,-19.69,26.48,1551.28,0.10,40.38,179.82
25785,-0.00,0.00,-1.00,0.12,-0.18,0.06,303.90,339.62,-18.17,26.45,1548.96,0.07,40.19,179.88
25808,0.00,0.00,-1.01,-0.06,-0.06,0.06,303.90,339.62,-18.17,26.47,1554.19,-0.04,40.04,179.81
25834,0.00,0.00,-1.00,0.18,-0.18,-0.06,303.90,339.62,-18.17,26.44,1553.39,-0.14,39.92,179.83
25857,0.00,0.00,-1.00,0.00,-0.24,0.00,303.90,339.62,-18.17,26.46,1550.76,-0.16,39.84,179.88
25881,-0.00,0.01,-1.00,0.12,-0.24,0.00,303.90,339.62,-18.17,26.45,1547.92,-0.02,39.77,179.78
25905,-0.00,0.00,-1.00,0.00,-0.18,0.00,292.88,312.77,-25.74,26.46,1550.76,0.06,39.98,179.84
25928,-0.00,0.00,-1.00,-0.06,-0.12,0.18,292.88,312.77,-25.74,26.48,1545.68,0.07,40.14,179.79
25954,0.00,0.00,-1.00,0.12,-0.24,0.06,292.88,312.77,-25.74,26.48,1548.59,0.03,40.28,179.79
25977,0.00,0.00,-1.01,-0.06,-0.12,0.00,292.88,312.77,-25.74,26.47,1554.95,-0.04,40.39,179.83
26001,0.00,0.01,-1.00,0.18,-0.06,0.06,292.88,312.77,-25.74,26.47,1552.90,-0.08,40.48,179.73
26025,-0.00,0.00,-1.00,0.00,-0.12,0.06,302.32,328.56,-31.80,26.47,1550.33,-0.03,40.44,179.74
26048,0.00,0.01,-1.00,-0.55,-0.12,0.00,302.32,328.56,-31.80,26.47,1552.77,-0.03,40.42,179.69
26090,0.00,0.00,-1.00,-0.18,-0.06,0.00,302.32,328.56,-31.80,26.46,1551.31,-0.02,40.39,179.79
26135,0.00,0.00,-1.00,0.31,-0.18,0.06,302.32,328.56,-31.80,26.45,1551.35,-0.02,40.36,179.95
26159,-0.00,0.01,-1.00,0.00,-0.12,0.06,303.90,323.82,-24.23,26.47,1551.87,0.01,40.47,179.84
26183,-0.00,0.00,-1.00,0.12,-0.12,0.00,303.90,323.82,-24.23,26.48,1552.84,0.01,40.55,179.83
26206,0.00,0.00,-1.00,0.06,-0.18,0.06,303.90,323.82,-24.23,26.47,1552.32,-0.03,40.62,179.80
26230,0.00,0.00,-1.00,0.00,-0.18,0.06,303.90,323.82,-24.23,26.47,1552.38,-0.03,40.67,179.79
26255,0.00,0.00,-1.00,0.06,-0.18,0.00,303.90,323.82,-24.23,26.48,1550.64,-0.09,40.72,179.80
26279,0.00,0.00,-1.01,-0.12,-0.12,0.06,305.47,328.56,-31.80,26.48,1551.22,-0.06,40.70,179.77
26303,-0.00,0.01,-1.00,-0.37,-0.12,0.12,305.47,328.56,-31.80,26.47,1550.40,-0.00,40.68,179.72
26326,-0.00,0.00,-1.00,-0.37,-0.18,0.06,305.47,328.56,-31.80,26.48,1553.39,0.05,40.67,179.81
26350,0.00,0.01,-1.01,-0.12,-0.12,0.06,305.47,328.56,-31.80,26.48,1552.41,-0.00,40.66,179.75
26375,0.00,0.00,-1.00,-0.12,-0.18,0.06,305.47,328.56,-31.80,26.49,1551.64,-0.10,40.65,179.80
26399,0.00,0.01,-1.00,0.12,-0.24,-0.06,310.20,301.71,-33.31,26.49,1548.44,-0.10,41.10,179.74
26423,-0.00,0.00,-1.00,0.18,-0.24,0.12,310.20,301.71,-33.31,26.47,1552.10,-0.02,41.48,179.77
26447,-0.00,0.00,-1.00,0.24,-0.06,0.12,310.20,301.71,-33.31,26.48,1550.51,0.05,41.81,179.80
26470,-0.00,0.01,-1.00,0.06,-0.12,0.06,310.20,301.71,-33.31,26.48,1549.78,0.12,42.09,179.74
26494,-0.00,0.00,-1.00,0.12,-0.12,0.00,310.20,301.71,-33.31,26.47,1552.32,0.10,42.32,179.80
26519,0.00,0.00,-1.00,0.00,-0.12,0.00,302.32,331.72,-28.77,26.49,1552.50,-0.08,41.78,179.81
26543,0.00,0.00,-1.00,0.12,-0.18,0.12,302.32,331.72,-28.77,26.49,1552.50,-0.12,41.40,179.84
26567,-0.00,0.00,-1.00,0.06,-0.12,0.00,302.32,331.72,-28.77,26.47,1552.19,-0.02,41.11,179.82
26590,0.00,0.00,-1.00,0.31,-0.18,0.06,302.32,331.72,-28.77,26.48,1551.46,-0.03,40.88,179.80
26614,0.00,0.00,-1.00,-0.12,-0.12,0.00,302.32,331.72,-28.77,26.46,1554.98,-0.08,40.70,179.80
26639,0.00,0.01,-1.00,-0.18,-0.18,0.00,303.90,311.19,-33.31,26.47,1551.15,-0.05,40.96,179.74
26663,-0.00,0.00,-1.00,-0.06,-0.12,0.00,303.90,311.19,-33.31,26.48,1552.16,-0.01,41.15,179.79
26687,-0.00,0.00,-1.00,-0.06,-0.24,0.00,303.90,311.19,-33.31,26.48,1550.05,0.09,41.31,179.78
26710,-0.00,0.00,-1.01,0.00,-0.18,0.06,303.90,311.19,-33.31,26.49,1555.06,0.12,41.44,179.81
26734,0.00,0.00,-1.00,-0.37,-0.18,0.06,303.90,311.19,-33.31,26.48,1551.82,0.05,41.55,179.77
26758,0.00,0.00,-1.00,0.00,-0.18,0.00,294.45,326.98,-24.23,26.49,1551.30,0.00,41.13,179.82
26783,-0.00,0.00,-1.01,-0.12,-0.18,0.06,294.45,326.98,-24.23,26.50,1548.33,0.10,40.79,179.80
26806,-0.00,0.00,-1.00,0.06,-0.18,0.00,294.45,326.98,-24.23,26.50,1552.13,0.12,40.55,179.85
26830,-0.00,0.00,-1.00,0.00,-0.18,0.06,294.45,326.98,-24.23,26.49,1553.56,0.09,40.36,179.90
26854,0.00,0.01,-1.00,0.24,-0.18,0.06,294.45,326.98,-24.23,26.48,1552.71,-0.04,40.22,179.83
26877,0.00,0.00,-1.00,0.24,-0.18,0.06,294.45,326.98,-24.23,26.47,1554.30,-0.06,40.11,179.89
26903,0.00,0.00,-1.00,-0.18,-0.18,0.06,300.75,336.46,-36.34,26.48,1552.77,-0.06,39.97,179.88
26927,-0.00,-0.00,-1.00,0.24,-0.18,0.18,300.75,336.46,-36.34,26.50,1552.31,0.00,39.86,179.95
26950,-0.00,0.00,-1.00,-0.24,-0.18,0.00,300.75,336.46,-36.34,26.47,1553.38,0.05,39.79,179.88
26974,-0.00,0.01,-1.00,-0.06,-0.18,-0.06,300.75,336.46,-36.34,26.48,1553.47,0.10,39.73,179.79
26997,0.00,0.00,-1.01,0.00,-0.12,0.00,300.75,336.46,-36.34,26.51,1551.51,0.01,39.68,179.84
27021,0.00,0.00,-1.00,0.06,-0.12,0.06,300.75,333.30,-27.26,26.49,1555.86,-0.02,39.70,179.82
27046,-0.00,0.00,-1.00,0.24,-0.12,0.00,300.75,333.30,-27.26,26.49,1554.82,0.01,39.71,179.84
27070,-0.00,0.00,-1.00,0.18,-0.18,0.00,300.75,333.30,-27.26,26.50,1552.43,0.01,39.73,179.91
27094,-0.00,0.00,-1.00,0.00,-0.12,-0.06,300.75,333.30,-27.26,26.50,1550.26,0.06,39.74,179.84
27117,-0.00,0.00,-1.00,-0.06,-0.18,0.06,300.75,333.30,-27.26,26.48,1551.15,0.05,39.74,179.83
27141,0.00,0.01,-1.00,-0.18,-0.18,0.00,307.05,323.82,-27.26,26.48,1551.79,0.03,40.01,179.73
27170,0.00,-0.00,-1.01,0.24,-0.06,0.06,307.05,323.82,-27.26,26.51,1548.82,0.02,40.28,179.87
27194,0.00,0.01,-1.00,-0.12,-0.12,0.06,307.05,323.82,-27.26,26.50,1551.79,-0.01,40.46,179.77
27218,0.00,0.00,-1.01,0.12,-0.18,0.12,307.05,323.82,-27.26,26.49,1551.21,-0.02,40.59,179.79
27241,0.00,0.01,-0.99,-0.18,-0.18,0.06,307.05,323.82,-27.26,26.50,1553.19,-0.01,40.71,179.68
27265,-0.00,0.00,-1.00,-0.06,-0.12,0.12,305.47,328.56,-22.71,26.50,1552.21,0.08,40.69,179.78
27289,-0.00,0.00,-1.00,0.12,-0.18,0.00,305.47,328.56,-22.71,26.51,1552.89,0.16,40.67,179.80
27314,-0.00,0.00,-1.00,0.18,-0.18,-0.06,305.47,328.56,-22.71,26.52,1552.77,0.14,40.66,179.86
27338,0.00,0.00,-1.00,0.31,-0.24,-0.06,305.47,328.56,-22.71,26.49,1552.40,0.01,40.66,179.83
27361,0.00,0.00,-1.00,0.18,-0.18,-0.06,305.47,328.56,-22.71,26.48,1551.30,-0.08,40.65,179.79
27385,0.00,0.00,-1.01,0.37,-0.12,0.06,303.90,326.98,-24.23,26.48,1551.76,-0.12,40.64,179.88
27409,-0.00,0.01,-1.00,-0.12,-0.18,-0.06,303.90,326.98,-24.23,26.50,1551.97,-0.01,40.64,179.79
27434,-0.00,0.00,-1.01,0.00,-0.12,0.06,303.90,326.98,-24.23,26.51,1553.04,0.12,40.63,179.81
27458,0.00,0.00,-1.01,0.18,-0.18,0.06,303.90,326.98,-24.23,26.51,1553.71,0.07,40.63,179.82
27499,-0.00,0.00,-1.00,-0.12,-0.12,0.00,302.32,328.56,-25.74,26.51,1551.30,0.02,40.52,179.75
27523,0.00,0.00,-1.00,0.00,-0.18,0.00,302.32,328.56,-25.74,26.51,1551.39,-0.02,40.48,179.83
27546,-0.00,0.00,-1.01,0.18,-0.12,0.06,302.32,328.56,-25.74,26.48,1552.52,0.00,40.45,179.83
27570,-0.00,0.00,-1.01,-0.12,-0.18,-0.06,302.32,328.56,-25.74,26.48,1549.56,0.02,40.42,179.82
27595,-0.00,0.01,-1.00,-0.24,-0.18,-0.06,302.32,328.56,-25.74,26.50,1552.00,0.03,40.40,179.75
27619,0.00,0.00,-1.01,0.18,-0.12,0.06,302.32,328.56,-25.74,26.50,1550.75,0.01,40.39,179.79
27643,-0.00,0.00,-1.00,0.37,-0.24,0.06,314.92,325.40,-25.74,26.52,1549.22,0.02,40.64,179.84
27667,-0.00,0.00,-1.00,0.06,-0.18,0.00,314.92,325.40,-25.74,26.51,1549.71,0.06,40.85,179.79
27690,-0.00,0.00,-1.00,0.06,-0.18,0.06,314.92,325.40,-25.74,26.51,1550.17,0.05,41.02,179.84
27716,0.00,0.00,-1.00,0.06,-0.06,0.06,314.92,325.40,-25.74,26.48,1551.73,-0.01,41.17,179.89
27739,0.00,0.00,-1.00,0.31,-0.12,0.12,314.92,325.40,-25.74,26.49,1550.77,-0.06,41.28,179.89
27763,-0.00,0.00,-1.00,0.00,-0.12,0.06,294.45,311.19,-36.34,26.49,1552.79,-0.02,41.25,179.89
27787,-0.00,0.00,-1.00,0.06,-0.18,0.00,294.45,311.19,-36.34,26.51,1550.53,0.04,41.23,179.84
27810,-0.00,0.00,-1.00,0.00,-0.24,0.00,294.45,311.19,-36.34,26.49,1551.02,0.13,41.21,179.84
27834,-0.01,0.01,-1.00,-0.06,-0.18,0.00,294.45,311.19,-36.34,26.51,1554.02,0.20,41.19,179.79
27859,0.00,0.00,-1.00,-0.18,-0.18,0.06,294.45,311.19,-36.34,26.51,1554.35,0.09,41.17,179.78
27883,0.01,0.00,-1.00,-0.12,-0.12,0.06,314.92,331.72,-28.77,26.50,1549.86,-0.08,41.18,179.81
27907,0.01,0.01,-1.00,-0.06,-0.18,0.06,314.92,331.72,-28.77,26.50,1551.20,-0.22,41.19,179.74
27930,0.00,0.00,-1.01,-0.06,-0.24,0.06,314.92,331.72,-28.77,26.54,1550.99,-0.16,41.19,179.79
27954,-0.01,0.00,-1.00,-0.06,-0.18,0.00,314.92,331.72,-28.77,26.53,1551.54,0.03,41.20,179.76
27979,-0.01,0.00,-1.00,0.00,-0.24,0.06,314.92,331.72,-28.77,26.50,1550.80,0.20,41.20,179.83
28003,-0.00,0.00,-1.00,-0.06,-0.18,0.12,300.75,320.66,-36.34,26.51,1553.04,0.19,41.13,179.84
28027,0.00,0.00,-1.00,0.00,-0.18,-0.06,300.75,320.66,-36.34,26.53,1551.75,0.07,41.08,179.81
28050,0.01,0.00,-1.00,-0.12,-0.12,-0.06,300.75,320.66,-36.34,26.51,1550.86,-0.09,41.04,179.87
28074,0.00,0.01,-1.01,-0.06,-0.18,0.06,300.75,320.66,-36.34,26.53,1552.54,-0.12,41.01,179.79
28098,-0.00,0.00,-1.01,-0.12,-0.06,0.00,300.75,320.66,-36.34,26.50,1554.05,-0.00,40.98,179.82
28123,-0.01,0.00,-1.00,-0.06,-0.24,-0.12,292.88,331.72,-25.74,26.50,1553.34,0.22,40.53,179.82
28147,-0.00,0.00,-1.00,-0.24,-0.24,0.06,292.88,331.72,-25.74,26.51,1550.01,0.19,40.21,179.81
28170,0.01,0.00,-1.01,-0.06,-0.24,0.12,292.88,331.72,-25.74,26.51,1552.21,-0.05,39.97,179.82
28194,0.01,0.01,-1.01,-0.37,-0.12,0.06,292.88,331.72,-25.74,26.49,1551.87,-0.25,39.78,179.77
28218,0.00,-0.00,-1.01,0.06,-0.18,-0.12,292.88,331.72,-25.74,26.52,1551.29,-0.25,39.65,179.90
28248,-0.00,0.00,-1.00,-0.24,-0.18,0.06,297.60,317.51,-18.17,26.52,1554.20,-0.02,39.94,179.81
28271,-0.01,-0.00,-1.00,-0.24,-0.24,0.12,297.60,317.51,-18.17,26.50,1550.56,0.24,40.12,179.90
28295,-0.01,0.00,-1.00,-0.06,-0.18,0.06,297.60,317.51,-18.17,26.49,1549.95,0.32,40.26,179.88
28319,0.00,0.00,-1.00,0.00,-0.18,-0.06,297.60,317.51,-18.17,26.52,1550.65,0.17,40.38,179.89
28342,0.01,0.00,-1.00,0.06,-0.18,0.12,297.60,317.51,-18.17,26.50,1551.56,-0.10,40.47,179.91
28366,0.01,0.01,-1.00,0.18,-0.18,0.06,308.62,325.40,-31.80,26.53,1550.37,-0.17,40.61,179.80
28390,0.00,-0.00,-1.00,0.31,-0.18,0.12,308.62,325.40,-31.80,26.50,1552.82,-0.13,40.72,179.89
28413,-0.00,0.01,-1.00,0.06,-0.12,-0.06,308.62,325.40,-31.80,26.53,1551.78,0.02,40.82,179.80
28437,-0.00,0.00,-1.01,0.12,-0.18,0.06,308.62,325.40,-31.80,26.51,1553.64,0.05,40.89,179.83
28460,-0.00,0.00,-1.00,0.18,-0.24,0.00,308.62,325.40,-31.80,26.49,1550.77,0.05,40.95,179.83
28484,-0.00,0.00,-1.01,0.06,-0.24,0.18,305.47,338.04,-19.69,26.49,1549.33,0.07,40.69,179.82
28510,-0.00,0.00,-1.00,0.00,-0.12,0.00,305.47,338.04,-19.69,26.51,1551.99,0.11,40.48,179.84
28533,-0.00,0.01,-1.00,-0.43,-0.12,0.06,305.47,338.04,-19.69,26.53,1552.66,0.08,40.33,179.71
28557,0.00,0.01,-1.00,-0.37,-0.18,0.00,305.47,338.04,-19.69,26.51,1554.62,-0.08,40.22,179.66
28580,0.01,0.00,-1.01,-0.24,-0.12,0.00,305.47,338.04,-19.69,26.49,1551.99,-0.22,40.13,179.73
28604,0.00,0.01,-1.00,-0.18,-0.06,0.18,305.47,338.04,-19.69,26.52,1554.16,-0.25,40.06,179.71
28630,-0.00,0.00,-1.00,-0.18,-0.18,0.06,289.73,328.56,-31.80,26.54,1552.39,-0.07,39.83,179.76
28653,-0.01,0.00,-1.00,-0.18,-0.12,-0.06,289.73,328.56,-31.80,26.51,1551.26,0.19,39.68,179.80
28677,-0.01,0.00,-1.00,-0.06,0.00,0.00,289.73,328.56,-31.80,26.53,1549.94,0.29,39.55,179.82
28700,-0.00,0.01,-1.00,0.06,-0.18,0.12,289.73,328.56,-31.80,26.54,1551.35,0.19,39.45,179.77
28724,0.01,0.00,-1.01,-0.12,-0.18,0.00,289.73,328.56,-31.80,26.52,1551.32,-0.05,39.37,179.78
28748,0.01,0.00,-1.00,0.00,-0.12,0.06,291.30,323.82,-21.20,26.53,1552.17,-0.24,39.44,179.78
28773,0.00,0.01,-1.00,-0.12,-0.24,-0.06,291.30,323.82,-21.20,26.53,1552.39,-0.16,39.50,179.70
28797,-0.00,0.00,-1.00,0.06,-0.12,0.00,291.30,323.82,-21.20,26.52,1553.12,-0.02,39.54,179.76
28820,-0.01,0.00,-1.01,0.00,-0.12,0.00,291.30,323.82,-21.20,26.52,1552.48,0.15,39.57,179.77
28844,-0.01,0.00,-1.00,-0.06,-0.18,0.00,291.30,323.82,-21.20,26.51,1553.79,0.26,39.59,179.75
28868,-0.00,0.00,-1.00,-0.06,-0.18,0.06,296.02,315.93,-25.74,26.52,1552.66,0.22,39.83,179.77
28914,0.01,0.01,-1.01,0.00,-0.12,0.06,296.02,315.93,-25.74,26.52,1551.81,-0.27,40.20,179.68
28938,0.00,0.00,-1.00,-0.24,-0.18,0.06,296.02,315.93,-25.74,26.56,1552.30,-0.19,40.33,179.74
28961,-0.00,0.00,-1.00,0.00,-0.12,0.06,296.02,315.93,-25.74,26.52,1549.52,-0.03,40.43,179.76
28985,-0.00,0.00,-1.00,0.18,-0.18,0.00,308.62,312.77,-22.71,26.52,1551.26,0.10,40.76,179.82
29009,-0.00,0.00,-1.00,0.12,-0.18,0.06,308.62,312.77,-22.71,26.54,1556.00,0.17,41.04,179.79
29032,-0.00,0.00,-1.00,0.06,-0.18,0.00,308.62,312.77,-22.71,26.51,1551.59,0.13,41.27,179.81
29058,0.00,0.00,-1.00,0.06,-0.12,0.00,308.62,312.77,-22.71,26.53,1551.41,-0.02,41.48,179.81
29081,0.00,0.00,-1.00,0.12,-0.18,0.00,308.62,312.77,-22.71,26.51,1549.88,-0.05,41.63,179.80
29105,-0.00,0.00,-1.00,0.06,-0.18,0.00,294.45,314.35,-30.28,26.52,1553.61,0.01,41.47,179.81
29129,-0.00,0.00,-1.00,0.06,-0.12,-0.06,294.45,314.35,-30.28,26.54,1554.13,0.03,41.34,179.80
29152,-0.00,0.00,-1.01,0.06,-0.24,0.00,294.45,314.35,-30.28,26.54,1552.81,0.04,41.24,179.80
29177,0.00,0.01,-1.00,0.00,-0.12,-0.06,294.45,314.35,-30.28,26.53,1554.04,0.01,41.15,179.75
29201,-0.00,0.00,-1.00,0.12,-0.18,0.06,294.45,314.35,-30.28,26.54,1550.76,0.01,41.08,179.81
29225,0.00,0.00,-1.00,0.00,-0.18,-0.06,299.17,331.72,-22.71,26.54,1551.77,-0.06,40.79,179.83
29249,-0.00,0.00,-1.00,-0.06,-0.18,-0.06,299.17,331.72,-22.71,26.52,1551.98,-0.04,40.56,179.79
29272,-0.00,0.00,-1.00,0.06,-0.12,0.06,299.17,331.72,-22.71,26.53,1550.91,0.03,40.38,179.87
29296,0.00,0.00,-1.00,0.00,-0.18,0.00,299.17,331.72,-22.71,26.50,1550.24,-0.05,40.24,179.85
29326,0.00,0.00,-1.00,-0.06,-0.06,0.00,299.17,331.72,-22.71,26.54,1549.63,-0.05,40.11,179.85
29349,-0.00,0.00,-1.00,0.00,-0.12,0.06,299.17,319.09,-31.80,26.53,1549.51,0.00,40.26,179.81
29373,-0.00,0.00,-1.00,0.00,-0.24,0.06,299.17,319.09,-31.80,26.53,1550.91,0.05,40.38,179.84
29397,-0.00,0.00,-1.00,-0.06,-0.18,0.06,299.17,319.09,-31.80,26.54,1553.18,0.04,40.47,179.79
29420,-0.00,0.00,-1.00,-0.12,-0.12,0.00,299.17,319.09,-31.80,26.52,1551.71,0.06,40.55,179.78
